latitude;longitude;Название;Описание;Адрес
56.60817;60.803787;Уральские метёлки;производственная компания;Садовая, 1Б
56.611684;60.80505;Telepay;сеть платежных терминалов;Садовая, 29а
56.612161;59.873061;Дом культуры;с. Мариинск;Мичурина, 3
56.612161;59.873061;Библиотека;с. Мариинск;Мичурина, 3
56.612418;60.806395;Дом культуры;пос. Первомайский;Садовая, 32
56.612418;60.806395;Сельская библиотека;пос. Первомайский;Садовая, 32
56.622103;60.206345;Библиотека;пос. Крылатовский;Кунгурская, 42
56.625584;60.378223;Библиотека №8;с. Курганово;Ленина, 70
56.627725;60.380831;Amigo;сеть платежных терминалов;Ленина, 51а, 1 этаж, магазин Пятёрочка
56.627725;60.380831;Магазин товаров для дома;;Ленина, 51а, 1 этаж
56.627725;60.380831;Мастерская климата;;Ленина, 51а
56.627725;60.380831;Магазин товаров для дома;;Ленина, 51а, 1 этаж
56.629881;60.389292;Telepay;сеть платежных терминалов;Школьная, 5
56.633317;60.856579;freshlandpost;сельскохозяйственная компания;Свердлова, 1а, 1 этаж
56.634681;60.829746;Здоровье;аптека;Свердлова, 34
56.634739;60.829761;Telepay;сеть платежных терминалов;Свердлова, 34, 1 этаж
56.63512;60.829556;Telepay;сеть платежных терминалов;Свердлова, 35
56.635602;60.586457;Qiwi;сеть платежных терминалов;Клубный переулок, 1, 1 этаж
56.635733;60.821855;Сбербанк;;Маяковского, 4а
56.635858;60.82096;Telepay;сеть платежных терминалов;Маяковского, 3, 1 этаж
56.635858;60.82096;Банкомат, Сбербанк, ПАО;;Маяковского, 3
56.635924;60.825946;Telepay;сеть платежных терминалов;Свердлова, 45/1
56.635985;60.82105;Чайная;;Маяковского, 3/1
56.636092;60.826118;Виола;аптека;Свердлова, 45/1
56.636228;60.586162;Зеленая Аптека;сеть аптек;Ленина, 16, 1 этаж
56.63625;60.825149;Октябрьский сельский дом культуры им. П.Г. Зуева;;ДК Октябрьский, Чапаева, 2а
56.636259;60.586678;Telepay;сеть платежных терминалов;Ленина, 14, 1 этаж
56.636259;60.586678;Магазин хозяйственных товаров;;Ленина, 14, 1 этаж
56.636317;60.822574;Банкомат, СКБ-банк, ПАО;;Свердлова, 45а
56.636325;60.822651;Фаворит;магазин одежды;Свердлова, 45а, 1 этаж
56.636372;60.586985;Qiwi;сеть платежных терминалов;Ленина, 14, 1 этаж
56.636388;60.576811;Qiwi;сеть платежных терминалов;Серова, 27, 1 этаж
56.636441;60.823315;Почтовое отделение;пос. Октябрьский;Чапаева, 1, 1 этаж
56.637172;60.583002;Почтовое отделение №904;пос. Шабровский;Ленина, 24, 1 этаж
56.637488;60.591714;Магазин стройматериалов;;Ленина, 1
56.637658;60.580908;Bt.shabri.ru;магазин;Ленина, 32, цокольный этаж
56.637658;60.580908;Парикмахерская;;Ленина, 32, цокольный этаж
56.637833;60.821076;Telepay;сеть платежных терминалов;Маяковского, 8
56.638977;60.819792;Сельская библиотека;пос. Октябрьский;Маяковского, 29а
56.643582;60.401159;Утопия;кафе;Победы, 37
56.644112;60.401253;Морозовские Дачи;строительный центр;Морозова, 20
56.644248;60.564031;Qiwi;сеть платежных терминалов;Совхозная, 15
56.644815;60.400978;Telepay;сеть платежных терминалов;Победы, 28, 1 этаж
56.645606;60.236844;Здрава Дача;SPA-комплекс;Свободы, 25а
56.645606;60.236844;Здрава Дача;SPA-комплекс;Свободы, 25а
56.648325;60.7058;Колобок;магазин хозтоваров;Колобова, 21а, 2 этаж
56.648325;60.7058;Telepay;сеть платежных терминалов;Колобова, 21а, 1 этаж
56.651524;60.240658;Библиотека;с. Кунгурка;Рабоче-Крестьянская, 55
56.655411;60.70326;Дом культуры;д. Большое Седельниково;Ленина, 25
56.655411;60.70326;Сельская библиотека;д. Большое Седельниково;Ленина, 25
56.655632;60.704063;Telepay;сеть платежных терминалов;Ленина, 30а, 1 этаж
56.655846;60.703336;Telepay;сеть платежных терминалов;Ленина, 32
56.655943;60.84309;Серебряный родник;база отдыха;Берёзки снт, 38/1
56.655946;60.702625;Магазин хозтоваров;ИП Гуляев А.Л.;Свердлова, 30а
56.656051;60.702692;Telepay;сеть платежных терминалов;Свердлова, 30а
56.657025;60.708148;Telepay;сеть платежных терминалов;1 Мая, 15в
56.657025;60.708148;Iris;салон-парикмахерская;1 Мая, 15в, 2 этаж
56.661222;60.705808;MasterDen;торгово-сервисный центр;Голубая, 5
56.662981;60.813122;Telepay;сеть платежных терминалов;Октябрьская, 35
56.667781;60.473404;Qiwi;сеть платежных терминалов;Центральная, 10
56.668367;60.812251;Telepay;сеть платежных терминалов;Советская, 10
56.668628;60.811666;Сельская библиотека;с. Бородулино;Советская, 11
56.670714;60.819019;Домик в деревне;банный комплекс;1 Мая, 6
56.675437;60.83692;Элекснет;сеть платежных терминалов;Парковая, 20/1
56.675731;60.807869;Медицинские технологии;научно-клинический центр;Колхозная, 23а
56.675772;60.80777;Макросфера;;Колхозная, 23а, цокольный этаж
56.67641;60.802781;Красотка;парикмахерская;Российская, 8
56.67659;60.806478;Советская;пельменная;Колхозная, 18, 2 этаж
56.676599;60.808372;Патрушевский;дом культуры;Центр досуга Патрушевский, Колхозная, 23
56.676599;60.808372;Библиотека;с. Патруши;Центр досуга Патрушевский, Колхозная, 23, 2 этаж
56.676702;60.806641;Хороший;магазин;Колхозная, 18, 1 этаж
56.677158;60.806095;Почтовое отделение;с. Патруши;Колхозная, 18, 1 этаж
56.677158;60.806095;Сбербанк;;Колхозная, 18, 1 этаж
56.677164;60.806472;Telepay;сеть платежных терминалов;Колхозная, 18
56.677164;60.806472;ЭЙВА;аптечная сеть;Колхозная, 18, 1 этаж
56.677234;60.806331;Банкомат, Сбербанк, ПАО;;Колхозная, 18, 1 этаж
56.677424;60.804348;Telepay;сеть платежных терминалов;Центральная, 3
56.677718;60.803994;Общественная баня в Патрушах;;Центральная, 2а
56.677735;60.580441;Наш Магазин;магазин одежды;Мира, 10
56.678982;60.805656;Магазин;ИП Елисеева Л.А.;Колхозная, 14Б
56.678982;60.805656;Telepay;сеть платежных терминалов;Колхозная, 14Б
56.680716;60.847794;Каприз;кафе;Новая, 38
56.681063;60.582756;Telepay;сеть платежных терминалов;Кузнецова, 1а, 1 этаж
56.681095;60.582547;Qiwi;сеть платежных терминалов;Кузнецова, 1Б, 1 этаж, кафе-закусочная У Ефимыча
56.681095;60.582547;У Ефимыча;кафе-закусочная;Кузнецова, 1Б
56.681143;60.137638;Telepay;сеть платежных терминалов;Советская, 170а
56.681579;60.105211;ГРОС;завод;Лесозаводская, 12к
56.681587;60.582315;Магазин фастфудной продукции;;Кузнецова, 2ж
56.681671;60.807978;Банкомат, СКБ-банк, ПАО;;Колхозная, 1а
56.681706;60.13613;Горыныч;драйв-клуб;Полевская, 2
56.681706;60.13613;Горыныч;драйв-клуб;Полевская, 2
56.681735;60.582737;Telepay;сеть платежных терминалов;Кузнецова, 2г лит Е
56.681754;60.807975;Квартал строй;магазин промышленных товаров;Колхозная, 1а, 1, 2 этаж
56.681886;60.860095;Банкомат, Уральский банк реконструкции и развития, ПАО;;Октябрьская, 171/1а
56.681957;60.578515;МЕГАФУД;Столовая;Станционная, 1а/1
56.682051;60.848561;Telepay;сеть платежных терминалов;Горбачёва, 17
56.682398;60.846132;Платежный терминал;;Новая, 9
56.682705;60.471933;В Гостях у Якута;гостевой дом;Аэродром днп, 1542
56.682906;60.839619;Пита Хаус;кафе быстрого питания;Новая, 2а/3 киоск
56.682983;60.840136;Telepay;сеть платежных терминалов;Рынок ФермерПарк, Новая, 2в
56.682983;60.840136;Банкомат, СКБ-банк, ПАО;;Рынок ФермерПарк, Новая, 2в
56.683256;60.838698;ПанКот;кафе;ТЦ Шишкин парк, Новая, 2а
56.683334;60.790814;Лагуна;кафе;Советская, 155, 1, 2 этаж
56.683395;60.838183;Магнит-Косметик;сеть магазинов косметики и бытовой химии;ТЦ Шишкин парк, Новая, 2а
56.683395;60.838183;Билайн;сеть офисов продаж;ТЦ Шишкин парк, 1 Мая, 85, 1 этаж
56.683395;60.838183;Qiwi;сеть платежных терминалов;ТЦ Шишкин парк, Новая, 2а, 1 этаж, супермаркет Верный
56.683395;60.838183;Telepay;сеть платежных терминалов;ТЦ Шишкин парк, Новая, 2а
56.683395;60.838183;Шишкин парк;торговый центр;ТЦ Шишкин парк, Новая, 2а
56.683395;60.838183;Авторизованный сервисный центр;;ТЦ Шишкин парк, Новая, 2а
56.683395;60.838183;Магнит-Косметик;сеть магазинов косметики и бытовой химии;ТЦ Шишкин парк, Новая, 2а
56.683395;60.838183;ТАБЛЕТКА+;аптечная сеть;ТЦ Шишкин парк, Новая, 2а, 1 этаж
56.683514;60.799864;Сварог;столовая;Пионерская, 41, 1 этаж
56.683514;60.799864;Сварог;столовая;Пионерская, 41, 1 этаж
56.683579;60.855748;Telepay;сеть платежных терминалов;Белинского, 13
56.684015;60.838416;Адреналин;спортивный клуб;Новая, 3Б, цокольный этаж
56.684015;60.838416;Адреналин;спортивный клуб;Новая, 3Б, цокольный этаж
56.684263;60.857648;Мыльная Гора;производственная компания;Октябрьская, 171
56.684411;60.840695;Семья;магазин одежды для всей семьи;Ленина, 2д, 1 этаж
56.684416;60.499805;Арлекино;Екатеринбургский детский цирк;Аэродром днп, 1887
56.684416;60.499805;Арлекино;Екатеринбургский детский цирк;Аэродром днп, 1887
56.684588;60.840706;Арамильская аптека;сеть аптек;Ленина, 2д, 1 этаж
56.684648;60.837981;Frozen;соляная комната;Новая, 3Б, цокольный этаж
56.684679;60.842185;Радуга;аптечная сеть;Ленина, 2в, 1 этаж
56.684681;60.841611;Арамильская центральная городская библиотека;;Ленина, 2г
56.684693;60.842395;Поликлиника;Арамильская городская больница;Ленина, 2в, 1 этаж
56.684845;60.840045;Comepay;сеть платежных терминалов;Ленина, 2е, 1 этаж
56.684849;60.841714;Лавочка Мадмуазель Аннет;магазин товаров для творчества и рукоделия;Ленина, 1ж
56.684875;60.844641;Почтовое отделение №3;г. Арамиль;Ленина, 2а
56.684875;60.844641;Почтовое отделение;пос. Большой Исток;Ленина, 2а
56.684894;60.840742;Эдан;салон красоты;Ленина, 2д/1, 1 этаж
56.684896;60.844879;Telepay;сеть платежных терминалов;Курчатова, 14а
56.684896;60.844879;Магазин игрушек;;Курчатова, 14а
56.684981;60.838077;ТЕХНОДРОМ;торгово-сервисная компания;Новая, 3Б, 1 этаж
56.685013;60.789995;Telepay;сеть платежных терминалов;Революции, 93
56.685067;60.507898;Stephanie;компания;Первомайская, 16
56.68522;60.840205;Магазин фастфудной продукции;;Ленина, 1в/1
56.685706;60.855221;Garage Smoking;центр паровых коктейлей;Октябрьская, 153, 1 этаж
56.685729;60.855059;Нагано;служба доставки;Октябрьская, 153, 1 этаж
56.685816;60.504434;Сеть магазинов одежды;ИП Анашкин Ю.В.;Будённого, 8, 2 этаж, магазин Пятёрочка
56.685816;60.504434;Магазин-мастерская по ремонту одежды и пошиву штор;ИП Суздалева И.В.;Будённого, 8, 2 этаж
56.685816;60.504434;Master GSM+;салон бытовых услуг;Будённого, 8, 2 этаж
56.685863;60.854856;Qiwi;сеть платежных терминалов;Октябрьская, 153, 1 этаж, магазин Beer на розlive
56.685951;60.552873;Банька на Красной поляне;банный оздоровительный комплекс;Полевской тракт 19 км, 2/1
56.686372;60.837354;Telepay;сеть платежных терминалов;1 Мая, 81а
56.686823;60.503602;Сантеххит;магазин сантехнического оборудования;Будённого, 1и
56.686949;60.51796;Селянка;кулинария;Ленина, 10г
56.687232;60.840614;М+В;магазин женской одежды;Текстильщиков, 12
56.68738;60.518078;Селянка;промышленный магазин;Ленина, 10, 2 этаж
56.68738;60.518078;Банкомат, Уральский банк реконструкции и развития, ПАО;;Ленина, 10
56.687403;60.518823;Униторг;магазин промышленных товаров;Ленина, 10а, 1 этаж
56.687403;60.518823;Униторг;магазин хозяйственных товаров;Ленина, 10а, 1 этаж
56.687403;60.518823;Комбинат бытового обслуживания;;Ленина, 10а, 2 этаж
56.687403;60.518823;Комбинат бытового обслуживания;;Ленина, 10а, 2 этаж
56.687651;60.840631;Telepay;сеть платежных терминалов;Текстильщиков, 3а
56.687656;60.840278;Малина;салон красоты;Текстильщиков, 3а, 1 этаж
56.687657;60.840197;Мастерская по изготовлению ключей;;Текстильщиков, 3а, 1 этаж
56.687683;60.838203;Магазин по продаже зоотоваров и товаров для рыбалки;;Текстильщиков, 1, 1 этаж
56.687693;60.837541;Арком-Сервис;;1 Мая, 75, 1 офис, 1 этаж
56.687696;60.840588;VICTORIYA;салон красоты;Текстильщиков, 3а
56.687872;60.849962;Трио;салон красоты;Ленина, 15, 2 этаж
56.6879;60.850022;Ромашки;кафе;Ленина, 15, 1 этаж
56.687911;60.851329;ЭЙВА;аптечная сеть;Октябрьская, 131, 1 этаж
56.687925;60.865202;ОптКарт;компания;Свободы, 20
56.687999;60.850232;Магазин промышленных товаров;ИП Суетина Т.Ю.;Ленина, 15, 2 этаж
56.687999;60.850232;Telepay;сеть платежных терминалов;Ленина, 15, 1 этаж
56.688163;60.837464;Камелия;аптека;1 Мая, 75, 1 этаж
56.68822;60.837568;Лайм;студия маникюра и педикюра;1 Мая, 75
56.688262;60.851959;NailMaster;студия ногтевого сервиса;Ленина, 16а, 1 офис, 1 этаж
56.688268;60.838447;Платежный терминал, Сбербанк, ПАО;;1 Мая, 75а
56.688268;60.838447;Сбербанк;;1 Мая, 75а, 1 этаж
56.688268;60.838447;Банкомат, Сбербанк, ПАО;;1 Мая, 75а
56.688293;60.837472;Ассорти;магазин детских товаров и сувениров;1 Мая, 75, 1 этаж
56.688353;60.08738;Олимп;лыжная база;Головина, 22
56.688482;60.837506;Мастерская по ремонту обуви;;1 Мая, 75/1
56.688569;60.884261;Домашняя кухня;;Пушкина, 4Б, 1 этаж
56.688569;60.884261;Пушкин парк;;Пушкина, 4Б, 2 этаж
56.688569;60.884261;Домашняя кухня;;Пушкина, 4Б, 1 этаж
56.688678;60.517576;Laurel;салон-парикмахерская;ЦК Горный Щит, Ленина, 12а, 1 этаж
56.688678;60.517576;Горный Щит;центр культуры;ЦК Горный Щит, Ленина, 12а
56.688678;60.517576;ОФИЦИНА;аптека;ЦК Горный Щит, Ленина, 12а, 1 этаж
56.688794;60.837282;Авангард;салон-парикмахерская;1 Мая, 71
56.688869;60.798772;Telepay;сеть платежных терминалов;Советская, 96, 1 этаж, магазин Пятёрочка
56.688971;60.516857;Почтовое отделение №902;;Ленина, 12, 1 этаж
56.688971;60.516857;Почта Банк;;Ленина, 12, 1 этаж
56.689105;60.799182;Telepay;сеть платежных терминалов;Советская, 94
56.68912;60.09464;Оранжерея;банкетный зал;Лесозаводская, 2а
56.689141;60.8373;Арт Стиль;парикмахерская;1 Мая, 71, 1 этаж
56.689307;60.837247;Fashion Kids;магазин детской одежды;1 Мая, 71, 1 этаж
56.689578;60.529539;Товаров;производственно-торговая компания;Зелёная, 2ж
56.689852;60.835944;Элеганс;студия красоты;1 Мая, 60в
56.689875;60.836998;STIGMATATTOO;тату-салон;1 Мая, 69, цокольный этаж
56.689904;60.837771;Ажур;парикмахерская;1 Мая, 69а, 1 этаж
56.689985;60.836952;Магнит-Косметик;сеть магазинов косметики и бытовой химии;1 Мая, 69, 1 этаж
56.689985;60.836952;Магнит-Косметик;сеть магазинов косметики и бытовой химии;1 Мая, 69, 1 этаж
56.690036;60.83693;Каре;парикмахерская;1 Мая, 69, 2 этаж
56.690136;60.085123;Дегтярская городская больница;;Головина, 9а
56.690136;60.085123;Детская поликлиника;Дегтярская городская больница;Головина, 9а
56.690136;60.085123;Женская консультация;Дегтярская городская больница;Головина, 9а
56.690137;60.836923;Qiwi;сеть платежных терминалов;1 Мая, 69
56.690137;60.836923;Мистер Ландри;сеть салонов бытовых услуг;1 Мая, 69
56.690137;60.836923;Мастерская по ремонту одежды;;1 Мая, 69, 1 этаж
56.690147;60.858716;Comepay;сеть платежных терминалов;Ленина, 40, 1 этаж
56.690192;60.838078;Фамилия;клиника;1 Мая, 69а, 1 этаж
56.690256;60.836924;А2;сеть аптек;1 Мая, 69
56.690348;60.858756;ИДИЛЛИЯ;салон красоты и здоровья;Ленина, 40, 3 кабинет, 2 этаж
56.690357;60.087432;Почтовое отделение №270;;Димитрова, 18
56.690357;60.087432;Почта Банк;;Димитрова, 18
56.690362;60.871251;Прогресс;группа компаний;Заветы Ильича, 33а
56.690447;60.091893;Теремок;парк отдыха;Лесозаводская, 2Б
56.690483;60.511561;Авантаж;аптека;Колхозная, 14, 1 этаж
56.690618;60.837109;Сервисный центр;;1 Мая, 69, цокольный этаж
56.690618;60.836946;Аптека низких цен;;1 Мая, 69, 5 помещение
56.690618;60.836946;МЕДАР;медицинский центр;1 Мая, 69, 6 офис, 1 этаж
56.690618;60.836946;Хеликс;лабораторная служба;1 Мая, 69
56.690687;60.753179;Telepay;сеть платежных терминалов;Челябинский тракт 25 км, лит Е, 1 этаж
56.690687;60.753179;Dobson;кафе;Челябинский тракт 25 км, лит Е
56.690722;60.836931;ЕКБ КОМП;мастерская по ремонту цифровой техники;1 Мая, 69, 1 этаж
56.690761;60.836932;СЧАСТЬЕ;детская парикмахерская;1 Мая, 69, 1 этаж
56.69117;60.83644;Caramel;магазин детской одежды;1 Мая, 63
56.69117;60.83644;Умка;магазин развивающих игрушек;1 Мая, 63, 1 этаж
56.69117;60.83644;ГАЛАМАРТ;сеть магазинов постоянных распродаж;1 Мая, 63, 1 этаж
56.691299;60.877991;Шашлычная;;Речной переулок, 15а/1
56.691379;60.877879;Telepay;сеть платежных терминалов;Речной переулок, 15а/1
56.691387;60.87754;Столовая;;Речной переулок, 15а, 2 этаж
56.691421;60.877493;Telepay;сеть платежных терминалов;Речной переулок, 15а
56.69145;60.836258;ГлаМурка;зоомагазин;1 Мая, 63, 1 этаж
56.69145;60.836258;Telepay;сеть платежных терминалов;1 Мая, 63, 1 этаж, супермаркет Кировский
56.69145;60.836258;Банкомат, Газпромбанк, АО;;1 Мая, 63, 1 этаж, супермаркет Кировский
56.69145;60.836258;Банкомат, Сбербанк, ПАО;;1 Мая, 63, 1 этаж, супермаркет Кировский
56.69145;60.836258;КЛАССИКА;сеть аптек;1 Мая, 63, 1 этаж
56.691777;60.513277;Ситилаб;медицинский центр;Будённого, 9
56.692054;60.836064;ДелоБанк;Проект ПАО СКБ-банк;1 Мая, 59а
56.692054;60.836064;Платежный терминал, СКБ-банк, ПАО;;1 Мая, 59а, 1 этаж
56.692054;60.836064;СКБ-банк;;1 Мая, 59а
56.692082;60.089107;Vian;парикмахерская;Калинина, 62, 1 этаж
56.692102;60.836039;Банкомат, СКБ-банк, ПАО;;1 Мая, 59а
56.69234;60.088981;Радужный;магазин;Калинина, 60
56.692382;60.088966;Qiwi;сеть платежных терминалов;Калинина, 60, 1 этаж, магазин Уралочка
56.692443;60.835861;CloudPark;салон;ТЦ Индиго, 1 Мая, 59/1, 1 этаж
56.692443;60.835861;Amigo;сеть платежных терминалов;ТЦ Индиго, 1 Мая, 59/1, 1 этаж
56.692443;60.835861;Qiwi;сеть платежных терминалов;ТЦ Индиго, 1 Мая, 59/1, 1 этаж
56.692443;60.835861;Индиго;торговый центр;ТЦ Индиго, 1 Мая, 59/1
56.692443;60.835861;Магазин одежды;;ТЦ Индиго, 1 Мая, 59/1, 2 этаж
56.69255;60.826488;kriSStyle;студия красоты;Окружная 2-я, 1а
56.692584;60.085793;Поликлиника;Дегтярская городская больница;Куйбышева, 22
56.692598;60.83685;Соло;салон красоты;1 Мая, 59, 1 этаж
56.692608;60.088884;1001 мелочь;магазин;Калинина, 60
56.69265;60.510743;Бодрость;;Гагарина, 16Б
56.692766;60.834694;Усадьба;магазин;1 Мая, 44, 1 этаж
56.692999;60.091148;Магазин товаров для рыбалки;ИП Подобытько Е.И.;ТРЦ Калинин Парк, Калинина, 31у, цокольный этаж
56.692999;60.091148;Швейное ателье;;ТРЦ Калинин Парк, Калинина, 31у, цокольный этаж
56.693;60.877134;Банкомат, АКБ Связь-банк, ПАО;;Речной переулок, 3/1
56.693017;60.090754;ГАЛАМАРТ;сеть магазинов постоянных распродаж;ТРЦ Калинин Парк, Калинина, 31у, 1 этаж
56.693017;60.090754;Amigo;сеть платежных терминалов;ТРЦ Калинин Парк, Калинина, 31у, 1 этаж
56.693017;60.090754;Qiwi;сеть платежных терминалов;ТРЦ Калинин Парк, Калинина, 31у, 1 этаж
56.693017;60.090754;ДНС;сеть супермаркетов цифровой и бытовой техники;ТРЦ Калинин Парк, Калинина, 31у
56.693017;60.090754;Калинин Парк;торговый центр;ТРЦ Калинин Парк, Калинина, 31у
56.693017;60.090754;Сервисная компания по ремонту сотовых телефонов;;ТРЦ Калинин Парк, Калинина, 31у, 1 этаж
56.693017;60.090754;Банкомат, Сбербанк, ПАО;;ТРЦ Калинин Парк, Калинина, 31у, 1 этаж
56.693163;60.088812;Радуга;аптечная сеть;Калинина, 58, 1 этаж
56.693238;60.091252;Miami;киоск по продаже фастфудной продукции;Калинина, 31у/1 киоск
56.693376;60.51873;Киоск по продаже фастфудной продукции;;Будённого, 25 киоск
56.693459;60.12426;Qiwi;сеть платежных терминалов;Советская, 41
56.693989;60.83399;Telepay;сеть платежных терминалов;1 Мая, 34, 1 этаж
56.694002;60.088445;Природа;магазин;Калинина, 58, 1 этаж
56.694231;60.83486;Алиан;магазин;1 Мая, 37, 1, 2 этаж
56.694231;60.83486;IT-ROOM;сервисный центр;1 Мая, 37, цокольный этаж
56.694423;60.86203;Банкомат, СКБ-банк, ПАО;;Шпагатная, 1Б/1
56.694535;60.833803;Reni;магазин наливной парфюмерии;1 Мая, 30, 1 этаж
56.694733;60.115885;Qiwi;сеть платежных терминалов;Советская, 32
56.694733;60.115885;Отдел хозяйственных товаров;;Советская, 32
56.694756;60.833682;Жемчужина;парикмахерская;1 Мая, 30, 2 этаж
56.694756;60.833682;SmokeHouse;центр паровых коктейлей;1 Мая, 30, 2 этаж
56.694812;60.088242;Парикмахерская;ИП Белькова Л.А.;Калинина, 54, 2 этаж
56.694812;60.088242;УльтраЛаб;медицинский центр;Калинина, 54, 1 этаж
56.694812;60.088242;Калейдоскоп;фотосалон;Калинина, 54
56.694889;60.829211;Карамель;студия маникюра;Мира, 1Б к1
56.694925;60.088202;Вита-Д;столовая;Калинина, 54, 1 этаж
56.695019;60.833294;Банкомат, Банк ВТБ, ПАО;;1 Мая, 24, 1 этаж
56.695044;60.833432;Мотив;оператор сотовой связи;1 Мая, 24, около супермаркета Минимарт
56.695044;60.833432;MOBI-AKS;сеть автоматов по продаже аксессуаров к мобильным телефонам;1 Мая, 24, 1 этаж
56.695044;60.833432;Telepay;сеть платежных терминалов;1 Мая, 24, 1 этаж, оператор Мотив
56.695044;60.833432;Банкомат, Газпромбанк, АО;;1 Мая, 24
56.695092;60.855101;Telepay;сеть платежных терминалов;Рабочая, 45а
56.69515;60.79118;Сытный пончик;магазин-кулинария;Космонавтов, 7
56.695184;60.834432;Дача+;магазин;1 Мая, 31
56.695186;60.79172;Хороший;магазин;Космонавтов, 7
56.695186;60.79172;Amigo;сеть платежных терминалов;Космонавтов, 7
56.695233;60.109423;Qiwi;сеть платежных терминалов;Озёрная, 10Б
56.695248;60.088028;Банкомат, Уральский банк реконструкции и развития, ПАО;;Калинина, 52
56.695293;60.088069;Qiwi;сеть платежных терминалов;Калинина, 52, 1 этаж, торговая сеть Монетка
56.695355;60.833953;Связной;сеть платежных терминалов;1 Мая, 27а
56.695355;60.833953;Связной;сеть салонов связи;1 Мая, 27а
56.695399;60.538138;Магазин товаров для сада и рыбалки;ИП Сидоренко Л.А.;Полевской тракт 17 км, 1 бокс 8, 5 павильон
56.695497;60.794291;ГлаМурка;зоомагазин;Космонавтов, 11а, 1 этаж
56.695501;60.794341;ГлаМурка;ветеринарный кабинет;Космонавтов, 11а, 1 этаж
56.695535;60.835365;Пища богов;киоск фастфудной продукции;1 Мая, 27/1 киоск
56.695538;60.795303;Версаль;салон красоты;Космонавтов, 11Б
56.695545;60.834935;Сезон Рыбалки;магазин товаров для отдыха и рыбалки;1 Мая, 27, 1 этаж
56.695555;60.537861;Магазин строительных и хозяйственных товаров;ИП Антипин С.А.;Полевской тракт 17 км, 1 бокс 6
56.695559;60.833007;Мега книга;магазин;1 Мая, 20, 1 этаж
56.695564;60.795814;Банкомат, Сбербанк, ПАО;;Космонавтов, 11
56.695582;60.835332;Киоск фастфудной продукции;;1 Мая, 27 киоск
56.695597;60.795843;Telepay;сеть платежных терминалов;Космонавтов, 11
56.695616;60.834307;TELE2;оператор сотовой связи;1 Мая, 27, 1 этаж
56.695616;60.834307;Amigo;сеть платежных терминалов;1 Мая, 27, 1 этаж
56.695616;60.834307;Qiwi;сеть платежных терминалов;1 Мая, 27, 1 этаж, торговая сеть Монетка
56.695616;60.834307;Магазин аксессуаров к мобильным телефонам;;1 Мая, 27, 1 этаж
56.695616;60.834307;Банкомат, Банк ФК Открытие, ПАО;;1 Мая, 27, 1 этаж
56.695616;60.834307;Банкомат, Уральский банк реконструкции и развития, ПАО;;1 Мая, 27, 1 этаж, торговая сеть Монетка
56.695616;60.834307;Банкомат, Сбербанк, ПАО;;1 Мая, 27, торговая сеть Монетка
56.695616;60.834307;Аптека ПЛЮС;;1 Мая, 27, 1 этаж
56.695618;60.081615;MaxwebSite;студия по созданию и разработке сайтов;Куйбышева, 8
56.695671;60.538233;Telepay;сеть платежных терминалов;Полевской тракт 17 км, 1 бокс 6
56.695727;60.086589;Магазин;ИП Кузнецов В.М.;Литвинова, 13, 1 этаж
56.695727;60.086589;Гламур;парикмахерская;Литвинова, 13, 2 этаж
56.695745;60.793567;Qiwi;сеть платежных терминалов;Космонавтов, 11/1
56.69578;60.82769;Садовник;садовый центр;Мира, 1а
56.695799;60.53793;Торговая компания;ИП Плешков М.А.;Полевской тракт 17 км, 1
56.695925;60.799017;Telepay;сеть платежных терминалов;Космонавтов, 17, 1 этаж
56.695925;60.799017;Русь;кафе-пельменная;Космонавтов, 17, 3 этаж
56.695938;60.833191;Qiwi;сеть платежных терминалов;1 Мая, 16а, салон МегаФон
56.695938;60.833191;МегаФон;сеть салонов связи;1 Мая, 16а
56.695971;60.537108;Telepay;сеть платежных терминалов;Горнощитская, 29/1
56.695971;60.537108;Шаурма Халяль;сеть киосков по продаже шаурмы;Горнощитская, 29/1
56.695981;60.833165;Закусочная;;1 Мая, 16а
56.696041;60.10932;Telepay;сеть платежных терминалов;Кунгурская, 5а, 1 этаж
56.696113;60.53734;Зоо-Всем;магазин зоотоваров;Будённого, 87а/1
56.696113;60.53734;Telepay;сеть платежных терминалов;Будённого, 87а/1
56.696296;60.538092;Колхозный двор;торговый центр;Будённого, 87а/1
56.696335;60.796411;ЭЙВА;аптечная сеть;Гарнизон, 18, 1 этаж
56.696433;60.538949;Магазин бензоинструмента, электроинструмента и садовой техники;ИП Неживых Е.М.;Будённого, 87а, Б-11 павильон
56.696495;60.541283;Уральский склад комбикормов;оптово-розничная компания;Полевской тракт 17 км, 1н, Н11 павильон
56.696535;60.539273;Хозтовары Урала;;Будённого, 87а, Б13 место
56.69656;60.876516;Банкомат, Сбербанк, ПАО;;Речной переулок, 2а
56.696571;60.539386;Upakovka Izumrud;оптово-розничная компания;Будённого, 87а, Б-14 павильон
56.696596;60.086185;Детская библиотека;;Литвинова, 7
56.696606;60.539499;ОГОРОДНИК;садовый центр;Будённого, 87а, Б-15 павильон
56.696606;60.833288;Чехольчик;сеть магазинов;1 Мая, 17/1 киоск
56.696615;60.537792;Платный общественный туалет;;Будённого, 87н/4
56.696656;60.833264;Дача+;магазин;1 Мая, 17/2
56.696665;60.087574;Кристалл;салон-парикмахерская;Калинина, 46, вход с торца
56.696724;60.539282;Eva-Строй;магазин;Будённого, 87а, Б-3 павильон
56.696773;60.833897;Магазин;ИП Манакова Н.В.;1 Мая, 17/29
56.696773;60.833897;Магазин по продаже радиотоваров;;1 Мая, 17/29
56.696801;60.80573;Telepay;сеть платежных терминалов;Революции, 1а
56.696874;60.833137;Киоск по продаже печатной продукции;;1 Мая, 17/5 киоск
56.696939;60.833038;Фармация;сеть аптек;1 Мая, 15, 1 этаж
56.696992;60.832017;Банкомат, СКБ-банк, ПАО;;ТЦ Заря, 1 Мая, 10
56.697053;60.802281;УЮТ;гостинично-развлекательный комплекс;Гарнизон, 1
56.697061;60.832076;Лютик;магазин детской одежды;ТЦ Заря, 1 Мая, 10, 2 этаж
56.697061;60.832076;Виктория;салон-ателье;ТЦ Заря, 1 Мая, 10, 2 этаж
56.697061;60.832076;Telepay;сеть платежных терминалов;ТЦ Заря, 1 Мая, 10, 1 этаж
56.697061;60.832076;Заря;торговый центр;ТЦ Заря, 1 Мая, 10
56.697061;60.832076;Магазин аксессуаров к мобильным телефонам;;ТЦ Заря, 1 Мая, 10, 2 этаж
56.697061;60.832076;Siberian Wellness;корпорация;ТЦ Заря, 1 Мая, 10, 2 этаж
56.697132;60.834255;Алёнушка;магазин бытовой химии и парфюмерии;1 Мая, 17/21
56.697132;60.834255;Домашний уют;;1 Мая, 17/21
56.697132;60.834255;Алёнушка;магазин бытовой химии и парфюмерии;1 Мая, 17/21
56.6972;60.087272;Фишка;магазин;Калинина, 44, 1 этаж
56.69732;60.832938;АргоМак;магазин;1 Мая, 13, 1 этаж
56.697338;60.465434;Каменные поляны;база отдыха;Садовая, 16
56.697345;60.831855;Алмаз;ломбард;1 Мая, 8Б, 1 этаж
56.697345;60.831855;Арамиль;сервисная компания;1 Мая, 8Б, 6 офис, 2 этаж
56.697345;60.831855;Норд;сеть магазинов;1 Мая, 8Б, цокольный этаж
56.697345;60.831855;Арамильский;торгово-деловой центр;1 Мая, 8Б
56.697345;60.831855;GSM-Эксперт;торгово-сервисный центр;1 Мая, 8Б, 2 этаж
56.697345;60.831855;Магазин пряжи и товаров для рукоделия;;1 Мая, 8Б, 2 бутик, цокольный этаж
56.697345;60.831855;Зоомагазин;;1 Мая, 8Б, 2 бутик, 1 этаж
56.697345;60.831855;Эдельвейс;медицинский центр;1 Мая, 8Б, 2 этаж, магазин РОБЕК
56.697367;60.541327;Магазин;ИП Авагян Н.Р.;Будённого, 87г, К6, К41 павильон
56.697372;60.798963;Маруся;диско-бар;Гарнизон, 20а
56.69741;60.832051;МТС;сеть салонов связи;1 Мая, 8 киоск
56.697418;60.535502;Франки;кафе быстрого обслуживания;Будённого, 87Б
56.697472;60.832726;Арамильское ГОРПО;торговая компания;1 Мая, 11
56.697472;60.832726;Арамильское ГОРПО;торговая компания;1 Мая, 11
56.69749;60.087093;Домовой;магазин;Калинина, 42, 1 этаж
56.697496;60.109786;Магазин хозяйственных товаров и игрушек;ИП Арманшин А.Р.;Озёрная, 12
56.697496;60.109786;Telepay;сеть платежных терминалов;Озёрная, 12
56.697514;60.08727;Домовой;магазин;Калинина, 42, 1 этаж
56.697527;60.831978;Бытовик-2;дом быта;1 Мая, 8
56.697527;60.831978;Натали;служба бытовых услуг;1 Мая, 8, 2 этаж
56.697527;60.831978;Шарм;парикмахерская;1 Мая, 8, 2 этаж
56.697594;60.542048;Магазин;ИП Лузин Е.Г.;Будённого, 87г, К-1 павильон
56.697616;60.832824;Умелец и Ко;сервисный центр технического обслуживания;1 Мая, 11, 1 этаж
56.697625;60.832866;Мария;кафе-пекарня;1 Мая, 11, 1 этаж
56.697626;60.799493;Банкомат, Сбербанк, ПАО;;Гарнизон, 4
56.69772;60.831842;Связной;сеть платежных терминалов;1 Мая, 8/1
56.69772;60.831842;Связной;сеть салонов связи;1 Мая, 8/1
56.697726;60.862771;Банкомат, СКБ-банк, ПАО;;Садовая, 10, Арамильская городская больница
56.697726;60.862771;Банкомат, Уральский банк реконструкции и развития, ПАО;;Садовая, 10
56.697726;60.862771;Арамильская городская больница;;Садовая, 10
56.697726;60.862771;Поликлиника;Арамильская городская больница;Садовая, 10
56.697726;60.862771;Эдан;буфет;Садовая, 10
56.697809;60.862623;Банкомат, Банк ВТБ, ПАО;;Садовая, 10
56.697855;60.832676;Билайн;сеть офисов продаж;1 Мая, 11/2
56.697855;60.832676;Qiwi;сеть платежных терминалов;1 Мая, 11/2
56.697935;60.087812;Живика;сеть аптек;Калинина, 29/2, 1 этаж
56.697972;60.087941;Broadway;бар;Калинина, 29/2, 2 этаж
56.698;60.832758;Кулинария;;1 Мая, 7, 1 этаж
56.698112;60.832629;Столовая №1;г. Арамиль;1 Мая, 7, 1 этаж
56.698133;60.085723;Городская библиотека;г. Дегтярск;ДК Дегтярск, Ленина площадь, 1а, 1 этаж
56.698183;60.08755;Qiwi;сеть платежных терминалов;Калинина, 29в
56.69821;60.085457;Дворец Культуры;г. Дегтярск;ДК Дегтярск, Ленина площадь, 1а
56.69821;60.085457;Историко-производственный музей;;ДК Дегтярск, Ленина площадь, 1а, 3 этаж
56.69821;60.085457;Немезида;танцевальный тандем;ДК Дегтярск, Ленина площадь, 1а
56.6983;60.832466;Магазин тканей и пряжи;ИП Некрасова О.Б.;1 Мая, 7, 2 этаж, правое крыло
56.6983;60.832466;Универмаг;ИП Шмелева О.П.;1 Мая, 7, 2 этаж
56.698304;60.087507;Amigo;сеть платежных терминалов;Калинина, 29Б, салон связи Евросеть
56.698304;60.087507;Евросеть;сеть салонов связи;Калинина, 29Б
56.698327;60.83078;Трактир;;Калинина, 2
56.698346;60.087202;МТС;платежный терминал;Калинина, 38а, 1 этаж
56.698346;60.087202;МТС;сеть салонов связи;Калинина, 38а
56.698399;60.087726;Магнит-Косметик;сеть магазинов косметики и бытовой химии;Калинина, 29, 1 этаж
56.698399;60.087726;Qiwi;сеть платежных терминалов;Калинина, 29, 1 этаж
56.698399;60.087726;Магнит-Косметик;сеть магазинов косметики и бытовой химии;Калинина, 29, 1 этаж
56.698409;60.809703;Сварог;столовая;Гарнизон, 3-6
56.698508;60.511502;Романовский;магазин товаров для дома;Толстого, 69
56.698541;60.825695;Ветеринарный кабинет;ИП Чернышева Е.И.;Чкалова, 1/2
56.698562;60.534377;Аригус;компания;Будённого, 87, 29 офис, 2 этаж
56.698646;60.832476;Почтовое отделение;г. Арамиль;1 Мая, 5, 1 этаж
56.698646;60.832476;Почта Банк;;1 Мая, 5
56.698646;60.832476;Банкомат, Почта Банк, ПАО;;1 Мая, 5
56.698682;60.831103;Эдельвейс;медицинский центр;1 Мая, 2а
56.698682;60.831103;Ситилаб;медицинский центр;1 Мая, 2а
56.698714;60.821658;Цветок лотоса;салон красоты;Карла Маркса, 37, 2 этаж
56.698714;60.821658;Карамель;магазин;Карла Маркса, 37, 1 этаж
56.698732;60.821777;Вита+;зуботехническая лаборатория;Карла Маркса, 37, 2 этаж
56.698735;60.804691;Индиго;прачечная;Гарнизон, 7-1
56.698789;60.844797;Технология ПК;торгово-сервисная компания;Щорса, 85
56.698806;60.82579;E-dance Studio;;Чкалова, 1а
56.698837;60.087649;Милена;магазин;Калинина, 29, цокольный этаж
56.698837;60.087649;Сундучок;магазин товаров для шитья и рукоделия;Калинина, 29, цокольный этаж
56.698878;60.086607;Рыбачок;магазин рыболовных принадлежностей;Калинина, 38, цокольный этаж
56.698889;60.085992;Мир техники и мебели;магазин;Ленина, 2, 1 этаж
56.698913;60.833271;Традиции здоровья;медицинский центр;Октябрьская, 3
56.698919;60.086762;Вербена;сеть салонов цветов;Калинина, 38, 1 этаж
56.698949;60.086751;Соблазн;салон-парикмахерская;Калинина, 38, 1 этаж
56.698963;60.087593;Компакт;магазин;Калинина, 27, 1 этаж
56.698963;60.087593;Мотив;оператор сотовой связи;Калинина, 27
56.699171;60.825164;Qiwi;сеть платежных терминалов;Карла Маркса, 17, 1 этаж, магазин Заря
56.699296;60.084869;Природа;магазин;Комарова, 4, 1 этаж
56.699406;60.827405;Сбербанк;;Карла Маркса, 9
56.699432;60.087354;Рубль;ломбард;Калинина, 27
56.699439;60.087447;Мастерская по ремонту и пошиву одежды;ИП Хундиярова Н.А.;Калинина, 27
56.699475;60.827157;Платежный терминал, Сбербанк, ПАО;;Карла Маркса, 9
56.699475;60.827157;Банкомат, Сбербанк, ПАО;;Карла Маркса, 9, 1 этаж
56.699481;60.086559;Радуга;аптечная сеть;Калинина, 36, 1 этаж
56.699752;60.825434;Telepay;сеть платежных терминалов;Карла Маркса, 30, 1 этаж, магазин За Рулем
56.700137;60.828415;Киоск по продаже фастфудной продукции;;Карла Маркса, 16 киоск
56.700154;60.82807;Копилка плюс;ломбард;Карла Маркса, 16
56.700179;60.087084;ДОЧКИ-СЫНОЧКИ;магазин;Калинина, 25, 1 этаж
56.700199;60.829963;Православная библиотека;Храм во имя Святой Троицы;Карла Маркса, 2
56.700286;60.087046;Ми Леди;магазин парфюмерии и кожгалантереи;Калинина, 25, 1 этаж
56.700304;60.846926;Qiwi;сеть платежных терминалов;Рабочая, 104, 1 этаж
56.700304;60.846926;Банкомат, Уральский банк реконструкции и развития, ПАО;;Рабочая, 104
56.700416;60.846881;Счастье рыбака;магазин рыболовных принадлежностей;Рабочая, 104
56.700449;60.087659;Банкомат, Уральский банк реконструкции и развития, ПАО;;Калинина, 25а
56.700469;60.087652;Банкомат, СКБ-банк, ПАО;;Калинина, 25а
56.700485;60.087646;Дом быта;г. Дегтярск;Калинина, 25а
56.700485;60.087646;Магазин бытовой химии;ИП Кременская Т.М.;Калинина, 25а, 1 этаж
56.700485;60.087646;Атлант+;магазин тканей;Калинина, 25а, 2 этаж
56.700485;60.087646;Банкомат, Сбербанк, ПАО;;Калинина, 25а, 1 этаж
56.700485;60.087646;Евро Style;салон-парикмахерская;Калинина, 25а, 11 бутик, 2 этаж
56.700485;60.087646;Siberian Wellness;корпорация;Калинина, 25а, 2 этаж
56.700485;60.087646;Вернисаж;фотостудия;Калинина, 25а, 17 офис, 2 этаж
56.700595;60.846433;А2;сеть аптек;Рабочая, 104, 1 этаж
56.700719;60.08689;Магазин электротоваров;;Калинина, 23, 1 этаж
56.700733;60.829477;Роспечать;киоск по продаже печатной продукции;Пролетарская, 2а киоск
56.700833;60.829054;Арамильская фармацевтическая компания;аптека;Пролетарская, 2а, 1 этаж
56.700877;60.829249;Стиль;парикмахерская;Пролетарская, 2а, 1 офис, 2 этаж
56.700898;60.829338;Стандарт;стоматология;Пролетарская, 2а, 3 офис
56.701072;60.087167;Дегтярская городская баня;;Калинина, 21
56.701129;60.087109;Стиль;парикмахерская;Калинина, 21
56.701152;60.844616;Qiwi;сеть платежных терминалов;Рабочая, 115
56.701198;60.845326;Telepay;сеть платежных терминалов;Рабочая, 108
56.701953;60.085752;ValeKsiya;магазин;Калинина, 26, 1 этаж
56.701953;60.085752;FUDJI;кафе-бар семейного типа;Калинина, 26
56.702188;60.08497;Fortuna;салон красоты;Уральских Танкистов, 1, 1 этаж
56.702188;60.08497;Юность;столовая;Уральских Танкистов, 1, 2 этаж
56.702238;60.089597;Частная ветеринарная клиника;;Калинина, 19Б
56.702275;60.069007;Qiwi;сеть платежных терминалов;Цветников, 1а
56.702437;60.838138;С изюминкой Екб;магазин оригинальных подарков и сувениров;Щорса, 38
56.702561;60.842478;Гюмри;шашлычная;Рабочая, 123а
56.702776;60.086148;Канцлер;магазин канцелярских товаров;Калинина, 15
56.703049;60.842082;Qiwi;сеть платежных терминалов;Рабочая, 126а
56.70324;60.844018;Банкомат, Уральский банк реконструкции и развития, ПАО;;ДК Арамиль, Рабочая, 120а
56.70324;60.844018;Shine;парикмахерская;ДК Арамиль, Рабочая, 120а, 1 этаж
56.70324;60.844018;Дворец культуры;г. Арамиль;ДК Арамиль, Рабочая, 120а
56.70324;60.844018;Библиотека;г. Арамиль;ДК Арамиль, Рабочая, 120а
56.70324;60.844018;Историко-краеведческий музей;;ДК Арамиль, Рабочая, 120а, 1 этаж
56.703419;60.843732;Банкомат, СКБ-банк, ПАО;;ДК Арамиль, Рабочая, 120а
56.703509;60.847059;Созвездие;центр развития физической культуры, спорта и молодежной политики;Садовая, 21, 1 этаж
56.70373;60.085028;Фармация;сеть аптек;Калинина, 20, 1 этаж
56.703763;60.840928;Скрепка;магазин канцелярских товаров;Рабочая, 128, 1 этаж
56.703817;60.840835;Qiwi;сеть платежных терминалов;Рабочая, 128
56.704144;60.085655;Сбербанк;;Калинина, 11
56.704144;60.085655;Банкомат, Сбербанк, ПАО;;Калинина, 11
56.704417;60.114865;Почтовое отделение №272;;Токарей, 3, 1 этаж
56.704493;60.084754;Мастерская по ремонту и пошиву одежды;ИП Хундиярова Н.А.;Калинина, 12, 1 этаж
56.704493;60.084754;ИП Предеина Е.А.;;Калинина, 12, 1 этаж
56.704493;60.084754;Магазин по продаже семян;;Калинина, 12
56.704604;60.114687;Хозяйственный магазин;;Токарей, 3, 1 этаж
56.704611;60.079945;Qiwi;сеть платежных терминалов;Уральских Танкистов, 18, 1 этаж
56.704664;60.11463;Магазин женской и детской одежды;ИП Меховых Е.Н.;Токарей, 3, 1 этаж
56.704664;60.11463;Одуванчик;магазин хозяйственных товаров;Токарей, 3
56.704664;60.11463;Парикмахерская;ИП Хальзова О.Н.;Токарей, 3, 1 этаж
56.704788;60.114073;Qiwi;сеть платежных терминалов;Озёрная, 34в
56.704859;60.077574;Банный комплекс;;Уральских Танкистов, 29а
56.705494;60.744169;Telepay;сеть платежных терминалов;Гостиница Кемпинг, Челябинский тракт 18 км, 2
56.705536;60.077421;Почтовое отделение №271;;Гагарина, 13а, 1 этаж
56.705762;60.083898;Amigo;сеть платежных терминалов;Гагарина, 1, 1 этаж, магазин Пятёрочка
56.705849;60.083553;Уровень;магазин отделочных и строительных материалов;Гагарина, 1, 2 этаж
56.705849;60.083553;Причесон;салон-парикмахерская;Гагарина, 1, 2 этаж
56.70594;60.079996;Стоматологическая поликлиника;Дегтярская городская больница;Гагарина, 9, 1 этаж
56.705958;60.084161;Радуга;аптечная сеть;Калинина, 6, 1 этаж
56.706176;60.081048;Имидж;парикмахерская;Гагарина, 5, 1 этаж
56.706346;60.745111;Элекснет;сеть платежных терминалов;Челябинский тракт 18 км, 1
56.70636;60.078222;Уют;кафе домашней кухни;Культуры, 1а
56.706395;60.081756;Qiwi;сеть платежных терминалов;Гагарина, 5, 1 этаж, торговая сеть Монетка
56.706395;60.081756;Банкомат, Уральский банк реконструкции и развития, ПАО;;Гагарина, 5, 1 этаж
56.706554;60.080554;Qiwi;сеть платежных терминалов;Гагарина, 7а, 1 этаж, супермаркет Верный
56.706569;60.084844;Центральная детская библиотека;г. Дегтярск;Калинина, 5
56.706599;60.076098;Telepay;сеть платежных терминалов;Культуры, 3а
56.707162;60.077308;Дом & Сад;магазин;Культуры, 1, цокольный этаж
56.707173;60.077507;Сами с Усами;зоомагазин;Культуры, 1, цокольный этаж
56.707384;60.827534;Telepay;сеть платежных терминалов;Набережная, 6
56.707454;60.077215;Электрон;магазин;Культуры, 2
56.707454;60.077215;Природа;магазин;Культуры, 2
56.707573;60.955101;Виктория;культурно-досуговый центр;Светлый посёлок, 42а
56.707736;60.819567;Telepay;сеть платежных терминалов;Колхозная, 73а/1, 1 этаж, магазин АВОСЬ,ка
56.708011;60.839978;Telepay;сеть платежных терминалов;Строителей, 21/1
56.708363;60.075165;Telepay;сеть платежных терминалов;Клубная, 10а
56.709458;60.733575;Telepay;сеть платежных терминалов;Аквамариновая, 1к, 1 этаж
56.709515;60.733441;Трактир;банкетный зал;Аквамариновая, 1к
56.709984;60.733199;Трактир;кафе;Челябинский тракт 17 км, 1в
56.710453;60.950123;ЕКБ КОМП;мастерская по ремонту цифровой техники;Светлый посёлок, 7а, 2 этаж
56.710453;60.950123;Дуняша;мини-маркет;Светлый посёлок, 7а, цокольный этаж
56.710453;60.950123;Qiwi;сеть платежных терминалов;Светлый посёлок, 7а
56.710453;60.950123;Рассвет;торговый центр;Светлый посёлок, 7а
56.710453;60.950123;Дуняша;мини-маркет;Светлый посёлок, 7а, цокольный этаж
56.710453;60.950123;Альянс;аптечный пункт;Светлый посёлок, 7а, 1 этаж
56.711262;60.790199;Сервисный центр;ИП Лобода С.В.;Народной Воли, 9Б
56.711585;60.838688;Семь теремов;оздоровительный комплекс;Сосновая, 12
56.711838;60.930185;Парк Сказов;;Парк Сказов, 1
56.711839;60.952773;Telepay;сеть платежных терминалов;Светлый посёлок, 2а
56.711889;60.088062;Уют;кафе домашней кухни;Калинина, 1е, 2 этаж
56.712097;60.796523;Визит;магазин;Ленина, 41, 2 этаж
56.712097;60.796523;Service-Shops;сервисный центр;Ленина, 41, 2 этаж
56.712097;60.796523;Qiwi;сеть платежных терминалов;Ленина, 41
56.712097;60.796523;СБ Урал;торгово-производственная компания;Ленина, 41, 2 этаж
56.712097;60.796523;Кукла;салон красоты;Ленина, 41, 2 этаж
56.712684;60.832743;А-Строй66;оптово-розничная компания;Пролетарская, 82/7, 53 павильон
56.712727;60.832798;Магазин электрорадиотоваров;ИП Душина Н.В.;Пролетарская, 82/7
56.712758;60.832231;Все для TV;магазин пультов и антенн;Пролетарская, 82/8, 9 павильон
56.712779;60.831874;Магазин хозяйственных товаров;ИП Степин Ю.А.;Пролетарская, 82/8, 6 павильон
56.712795;60.832315;Салон-ателье штор и карнизов;;ТЦ Евразия, Пролетарская, 82/12, 15 павильон, торговый город Арамильский привоз
56.712856;60.83094;Магазин ковров;ИП Лисовой И.Н.;Пролетарская, 82/2, 30 павильон
56.712878;60.832994;Магазин;ИП Ермолаев Э.Л.;Пролетарская, 82/7, 58 павильон
56.71291;60.830804;ЗУБР;магазин инструментов и оборудования;Пролетарская, 82/2, 30/1 павильон
56.712926;60.83031;Арамильская слобода;парк;Пролетарская, 82Б
56.712926;60.83031;Арамильская слобода;казачий острог;Пролетарская, 82Б
56.712926;60.83031;Арамильская слобода;парк;Пролетарская, 82Б
56.712926;60.83031;Арамильская слобода;парк;Пролетарская, 82Б
56.712989;60.833197;Магазин спецодежды и обуви;ИП Якименко О.В.;Пролетарская, 82/7, 61 павильон
56.713005;60.832217;In jeans;магазин;ТЦ Евразия, Пролетарская, 82/12, 1 этаж
56.713005;60.832217;Модные детки;магазин детской одежды;ТЦ Евразия, Пролетарская, 82/12, 22 бутик
56.713005;60.832217;Чехольчик;сеть магазинов;ТЦ Евразия, Пролетарская, 82/12, 1 этаж
56.713005;60.832217;Евразия;торговый центр;ТЦ Евразия, Пролетарская, 82/12
56.713005;60.832217;Студия Александры Кауковой;;ТЦ Евразия, Пролетарская, 82/12
56.71304;60.829468;Хуторок;кафе;Пролетарская, 82Б/3
56.71304;60.829468;Хуторок;кафе;Пролетарская, 82Б/3
56.713246;60.783852;Telepay;сеть платежных терминалов;Исетский переулок, 4а
56.71329;60.829884;ЗУБР;магазин инструментов и оборудования;Пролетарская, 82/1, 18 павильон
56.713311;60.833064;Узбекская чайхана;кафе;Пролетарская, 82/13
56.713351;60.831061;Уютный дом;магазин;ТГ Арамильский привоз, Пролетарская, 82, 1 этаж
56.713393;60.830263;Telepay;сеть платежных терминалов;Пролетарская, 82/9
56.713393;60.830263;Qiwi;сеть платежных терминалов;Пролетарская, 82/9
56.713393;60.830263;Мандарин;торговый центр;Пролетарская, 82/9
56.713397;60.829559;У Валентины;сервис-магазин;Пролетарская, 82/1, 14 павильон
56.713418;60.950813;Почтовое отделение;пос. Арамиль;Станционная, 7а
56.713441;60.767387;Диверсант;военно-спортивная школа;Парковая, 16
56.713471;60.832629;Магазин товаров для рыбалки и отдыха;;Пролетарская, 82/13, 219 павильон
56.713522;60.832498;Магазин постельных принадлежностей;ИП Довганова В.В.;Пролетарская, 82/13, 217 павильон
56.71362;60.829803;Банкомат, СКБ-банк, ПАО;;Пролетарская, 82/10, 1 этаж
56.713629;60.830351;Первый хозяйственный;магазин;ТГ Арамильский привоз, Пролетарская, 82, 1 павильон, 1 этаж
56.71366;60.92186;Telepay;сеть платежных терминалов;Заводская, 12
56.71366;60.92186;Аптека;ИП Титова Г.И.;Заводская, 12
56.713756;60.950825;Telepay;сеть платежных терминалов;Станционная, 7а, 1 этаж, магазин Семья
56.713756;60.950825;Банкомат, СКБ-банк, ПАО;;Станционная, 7а, 1 этаж
56.713769;60.793049;Банкомат, СКБ-банк, ПАО;;Декабристов, 1/1, 1 этаж
56.713794;60.831803;Антошка;магазин-мастерская детских товаров;Пролетарская, 82/14
56.713797;60.829384;Салон-ателье штор и карнизов;;Пролетарская, 82/18, 6 павильон
56.71391;60.831506;Домашний текстиль;магазин;Пролетарская, 82/15, 206 павильон
56.713912;60.830614;Евросеть;сеть салонов связи;ТГ Арамильский привоз, Пролетарская, 82
56.713916;60.823973;Qiwi;сеть платежных терминалов;Пролетарская, 87в лит3, 1 этаж, магазин Монетка
56.713916;60.823973;Мебельный порт;торговый комплекс;Пролетарская, 87в лит3
56.713929;60.830113;Здоровая семья;аптека;ТГ Арамильский привоз, Пролетарская, 82, 1 этаж
56.714;60.830389;Арамильский привоз;торговый город;ТГ Арамильский привоз, Пролетарская, 82
56.714039;60.775333;Сбербанк;;Ленина, 119а
56.71405;60.792912;Дон Кебаб;;Декабристов, 1/3, 1 этаж
56.714098;60.775122;Почтовое отделение №624006;;Ленина, 119а
56.714101;60.829725;Магазин зоотоваров;ИП Карачев О.Г.;Пролетарская, 82/18, 4 павильон
56.714113;60.829741;Магазин товаров для дома и сада;ИП Палферов Б.А.;Пролетарская, 82/18, комплекс Арамильский привоз
56.714305;60.829989;Билайн;сеть офисов продаж;Пролетарская, 82/18
56.714305;60.829989;Qiwi;сеть платежных терминалов;Пролетарская, 82/18
56.714457;60.948792;Qiwi;сеть платежных терминалов;Станционная, 16, 1 этаж, магазин Саша
56.714482;60.773852;ServiseShop;сервисный центр;Ленина, 121Б, 1 этаж
56.714482;60.773852;Qiwi;сеть платежных терминалов;Ленина, 121Б, 1 этаж, торговая сеть Монетка
56.714485;60.764015;Большеистокская участковая больница;;Ленина, 159
56.71449;60.823766;Мото Прайд;мотоцентр;Пролетарская, 87в лит5, 1 этаж
56.714636;60.825227;Магазин одежды;ИП Толибов Р.А.;Пролетарская, 87а, 1, 2 этаж
56.714646;60.764726;Telepay;сеть платежных терминалов;Ленина, 141а
56.714708;60.830026;Арамильская ветеринарная лечебница;;Пролетарская, 80
56.714779;60.773888;Ваше здоровье;аптечный пункт;Ленина, 148а
56.714813;60.826603;Эдан;кафе;Пролетарская, 76а, 1 этаж
56.714842;60.760902;АРИОН;оптовая компания;Ленина, 171, 2.3 офис, 2 этаж
56.714905;60.825576;Магазин товаров для рыбалки и отдыха;;Пролетарская, 87а, 1 этаж
56.714964;60.76404;Медея;сеть аптек;Ленина, 168, 1 этаж
56.715015;60.76885;Катрин;салон красоты;Ленина, 156
56.715024;60.773303;Магазин зоотоваров;ИП Кротова М.В.;Ленина, 152
56.715024;60.769473;Telepay;сеть платежных терминалов;Ленина, 154Б
56.71504;60.772777;ИП Сидорова О.В.;;Ленина, 152 киоск
56.71504;60.772777;ИП Сидорова О.В.;;Ленина, 152 киоск
56.715151;60.829186;ДЖЕМ;бизнес-галерея;Пролетарская, 82а/1
56.715388;60.789337;Десятка;гостевой дом;Декабристов, 32
56.715461;60.829625;Черника;арт-парк-отель;Пролетарская, 82а/3
56.715497;60.771821;Твой стиль;магазин;Советская, 60а
56.715549;60.829772;Славянка;оздоровительный центр;Пролетарская, 82а, 1 этаж
56.715564;60.826561;Мир крепежа;магазин;Пролетарская, 85
56.716171;60.787589;Эффект;магазин зоотоваров и семян;Кооперативная, 2
56.716171;60.787589;Эффект;аптечный пункт;Кооперативная, 2
56.716239;60.831817;ЭкоСад;садовый центр;Пролетарская, 82/6Б
56.716331;60.787416;Большеистокская сельская библиотека;;Кооперативная, 4
56.716387;60.787355;Магазин канцелярских товаров;;Кооперативная, 4
56.716434;60.787305;Telepay;сеть платежных терминалов;Кооперативная, 6
56.716725;60.827995;Премиум-авто;автосалон;Пролетарская, 95/5
56.716802;60.826229;Парилочка;русская баня;Пролетарская, 95
56.717001;60.830192;Банкомат, СКБ-банк, ПАО;;ТК Славянка, Пролетарская, 82/6
56.717138;60.829657;Формула отдыха;магазин товаров для отдыха и туризма;Пролетарская, 84г
56.717212;60.071011;Telepay;сеть платежных терминалов;Стахановцев, 37
56.717239;60.831075;Kids;магазин детской одежды;ТК Славянка, Пролетарская, 82/6
56.717239;60.831075;Telepay;сеть платежных терминалов;ТК Славянка, Пролетарская, 82/6, 1 этаж
56.717239;60.831075;Сельский привоз Славянка;торговый комплекс;ТК Славянка, Пролетарская, 82/6
56.717239;60.831075;Магазин игрушек;;ТК Славянка, Пролетарская, 82/6
56.717239;60.831075;Магазин корейских салатов;ИП Хван Н.Ю.;ТК Славянка, Пролетарская, 82/6, 1 этаж
56.717239;60.831075;Славянка;столовая;ТК Славянка, Пролетарская, 82/6
56.717327;60.8299;Магазин зоотоваров;ИП Карачев О.Г.;Пролетарская, 84в
56.717568;60.830213;Икебана;магазин;Пролетарская, 84д
56.71759;60.830241;Магазин товаров для дома и сада;ИП Стафеева Е.В.;Пролетарская, 84д
56.71759;60.830241;Sherwood;мастерская по дереву;Пролетарская, 84д
56.717753;60.830465;Магазин спецодежды и обуви;ИП Якименко О.В.;Пролетарская, 84Б
56.718087;60.795841;Оранж;парикмахерская;Степана Разина, 5Б, 1 этаж
56.718112;60.830916;Ккрепеж-строй;магазин;Пролетарская, 84ж
56.718314;60.772186;Банкомат, Сбербанк, ПАО;;Металлистов, 1, 1 этаж
56.718867;60.773561;Банкомат, СКБ-банк, ПАО;;Свердлова, 37
56.71887;60.773519;Qiwi;сеть платежных терминалов;Свердлова, 37
56.720763;60.757736;Telepay;сеть платежных терминалов;Пушкина, 21/1
56.720944;60.636712;Дельфин;торгово-производственная компания;Адмирала Ушакова, 25а, 4 офис
56.721113;60.774379;Лагуна;парикмахерская;Октябрьская, 27Б
56.721354;60.773162;Мастерок;магазин хозяйственных товаров;Октябрьская, 48
56.721597;60.636971;Telepay;сеть платежных терминалов;Адмирала Ушакова, 28
56.721639;60.78051;Студия красоты и здоровья;;Колхозная, 39, 1 этаж
56.721972;60.636453;Магнит-Косметик;сеть магазинов косметики и бытовой химии;Москвина, 3, 1 этаж
56.722064;60.777045;Telepay;сеть платежных терминалов;Демьяна Бедного, 9а
56.722071;60.776972;Икс;служба компьютерного сервиса;Демьяна Бедного, 9а, 2 этаж
56.722071;60.776972;Мастерская по ремонту одежды;;Демьяна Бедного, 9а, 2 этаж
56.722071;60.776972;Марафет;парикмахерская;Демьяна Бедного, 9а
56.722126;60.776794;Лотос;магазин;Гагарина, 17Б
56.722379;60.772281;Русская кухня;кафе-закусочная;Гагарина, 1
56.722924;60.640038;Библиотека №33;;Адмирала Ушакова, 22, цокольный этаж
56.723117;60.640258;Магазинчик;;Дошкольная, 2, 1 этаж
56.723208;60.640257;Рудник;магазин промтоваров;Дошкольная, 2, 1 этаж
56.723208;60.640257;Qiwi;сеть платежных терминалов;Дошкольная, 2, 1 этаж
56.723513;60.640253;Telepay;сеть платежных терминалов;Дошкольная, 2
56.724028;60.836675;Zlata krona;садовый центр;Арамильский тракт 4 км, 1
56.724206;60.640244;Почтовое отделение №54;;Круговая, 28, 1 этаж
56.724206;60.640244;Почта Банк;;Круговая, 28, 1 этаж
56.724304;60.751916;Фабрика Успеха;торгово-производственная компания;Пушкина, 2а
56.724308;60.577725;Спортмастер;Федеральный распределительный центр;Перспективная, 9, 302 офис, 3 этаж
56.724693;60.63878;Онлайн-Урал;IT-компания;Круговая, 26
56.72492;60.750841;Telepay;сеть платежных терминалов;Пушкина, 1
56.725883;60.756152;Банкомат, СКБ-банк, ПАО;;Свердлова, 42, 1 этаж
56.727044;60.75336;Банкомат, Сбербанк, ПАО;;Свердлова, 42а, 1 этаж
56.727044;60.75336;Cafe Time;кафе;Свердлова, 42а, предприятие Стройкомплек
56.727044;60.75336;Cafe Time;кафе;Свердлова, 42а, предприятие Стройкомплек
56.728977;60.747324;СанСаныч;магазин строительных материалов и крепежа;Победы, 2 ст2
56.730698;60.729353;Telepay;сеть платежных терминалов;Космонавтов, 2, 1 этаж
56.731061;60.739858;Sweet;магазин одежды;Трудовая, 48а/1, 2 этаж
56.731115;60.739515;ИП Стафеев Е.А.;официальный дистрибьютор корма Grand Prix;Трудовая, 48а, 2 этаж
56.731115;60.739515;Qiwi;сеть платежных терминалов;Трудовая, 48а, 1 этаж, универсам Магнит
56.731115;60.739515;ИраБэлла;салон-парикмахерская;Трудовая, 48а, 2 этаж
56.732186;60.726822;Telepay;сеть платежных терминалов;Трудовая, 1Б
56.732913;60.957717;Ясадовод.рф;магазин;Светлая, 44
56.733064;60.957802;Стрижка;салон-парикмахерская;Светлая, 44а
56.734506;60.982927;Орхидея;студия красоты;Ленина, 1в
56.734563;60.982784;Qiwi;сеть платежных терминалов;Ленина, 1в, 1 этаж
56.734563;60.982784;Корица;кулинария-пекарня;Ленина, 1в
56.735932;60.964015;Платежный терминал;;Ленина, 62а
56.735949;60.961673;Qiwi;сеть платежных терминалов;Ленина, 66а
56.735951;60.962129;Telepay;сеть платежных терминалов;Ленина, 66Б
56.735969;60.961044;Старый тракт;кафе-бар;Ленина, 68
56.735977;60.962531;Qiwi;сеть платежных терминалов;Ленина, 66
56.736115;60.961586;Эскулап;медицинский центр;Кузнечная, 8а
56.736144;60.951354;Lady Shop;магазин;Ленина, 118, 2 этаж
56.736144;60.951354;Lady Shop;магазин;Ленина, 118, 2 этаж
56.73617;60.951319;Виктория;салон красоты;Ленина, 118, 2 этаж
56.736228;60.961848;Синий тигр;зоомагазин;Кузнечная, 8, 1 этаж
56.736228;60.961848;Мелочи жизни;магазин;Кузнечная, 8, 1 этаж
56.736307;60.704337;Элекснет;сеть платежных терминалов;Димитрова, 120
56.736316;60.966131;Раздолье;загородный SPA-отель;Ленина, 55
56.73638;60.961575;Весёлая затея;магазин по продаже гелиевых шаров;Кузнечная, 8Б
56.736388;60.962583;Все для детей;магазин;Ленина, 62г
56.73639;60.962798;Хозяюшка;магазин;Ленина, 64, 2 этаж
56.73639;60.962798;Мир цветов;магазин;Ленина, 64, 2 этаж
56.73639;60.962798;Удачник;магазин;Ленина, 64, 1 этаж
56.73639;60.962798;Хозяюшка;магазин;Ленина, 64, 2 этаж
56.736417;60.962692;Рыбалка и отдых;магазин;Ленина, 64
56.736437;60.963158;Lavantel;студия биочистки;Ленина, 64
56.736446;60.948533;Планета одежды и обуви;магазин;Ленина, 129
56.736446;60.948533;Qiwi;сеть платежных терминалов;Ленина, 129
56.736615;60.963243;Швейное ателье-магазин;;Ленина, 64/1
56.736664;60.966234;Кокетка;парикмахерская;Ленина, 50а
56.736702;60.972365;У Валерыча;магазин строительных материалов;Ленина, 36/1
56.736721;60.948028;Платежный терминал;ИП Казанцева Е.С.;Ленина, 129
56.736721;60.948028;Рыболов;магазин;Ленина, 129
56.736721;60.948028;Пересвет;торговый центр;Ленина, 129
56.736721;60.948028;Медуница;аптека;Ленина, 129
56.736814;60.966896;Домовой;магазин;Ленина, 48
56.736814;60.966896;Amigo;сеть платежных терминалов;Ленина, 48
56.736814;60.966896;Qiwi;сеть платежных терминалов;Ленина, 48
56.736814;60.966896;Telepay;сеть платежных терминалов;Ленина, 48
56.736814;60.966896;Аптека 5+;;Ленина, 48
56.736965;60.959711;Косулинская участковая поликлиника;;Строителей, 5
56.737281;60.970673;Библиотека;Храм во имя святых мучеников Флора и Лавра;Ленина, 38Б/1
56.737324;60.959696;Почтовое отделение №624055;с. Косулино;Строителей, 5
56.738164;60.961189;Лексервис;аптека;Кузнечная, 13
56.738476;60.599013;Арт-Ландшафт;ландшафтная компания;Селькоровская, 124а
56.738504;60.971653;Два поварёнка;кафе;Советская, 24а
56.73853;60.961249;Юбилейный;дом культуры;Уральская, 62
56.73853;60.961249;Белоярская центральная районная библиотека;Косулинский филиал;Уральская, 62, 2 этаж
56.73861;60.971017;Qiwi;сеть платежных терминалов;Советская, 29а, 1 этаж
56.73928;60.965913;Qiwi;сеть платежных терминалов;1 Мая, 15
56.739321;60.965076;ПКС;курьерская служба;1 Мая, 15/1
56.739419;60.957023;Telepay;сеть платежных терминалов;Молодёжная, 1, 1 этаж, магазин Фасоль
56.739544;60.984347;Снеготрек;компания по прокату квадроциклов и снегоходов;Трактовая, 3
56.739623;60.609448;Amigo;сеть платежных терминалов;Бисертская, 2Б, 1 этаж
56.739849;60.60706;Сеть салонов бытовых услуг;ИП Манукян А.М.;Бисертская, 2в
56.739849;60.60706;Мистер Ландри;сеть салонов бытовых услуг;Бисертская, 2в
56.739849;60.607814;След;парикмахерская;Бисертская, 2, цокольный этаж
56.739893;60.607015;Telepay;сеть платежных терминалов;Бисертская, 2в
56.739893;60.607015;Магазин по продаже фастфудной продукции;;Бисертская, 2в
56.740003;60.606967;Магазин цветов и товаров для сада;ИП Тихонова О.В.;Бисертская, 2г
56.740057;60.607277;Новинка;магазин косметики и бытовой химии;Бисертская, 2
56.740057;60.607043;Telepay;сеть платежных терминалов;Бисертская, 2д
56.740057;60.607277;Новинка;магазин косметики и бытовой химии;Бисертская, 2
56.740337;60.607672;Qiwi;сеть платежных терминалов;Бисертская, 4, 1 этаж, супермаркет Верный
56.740337;60.607672;TopService66;сеть сервисных центров;Бисертская, 4
56.740602;60.608048;Лекон-Фарм;сеть аптек;Бисертская, 4, 1 этаж
56.740613;60.543147;Brаnds`Stories;аутлет-центр;Нескучная, 3
56.740613;60.543147;Adidas;сеть магазинов спортивных товаров;Нескучная, 3
56.740613;60.543147;Iceberg;химчистка-прачечная;Нескучная, 3
56.740613;60.543147;Банкомат, Уральский банк реконструкции и развития, ПАО;;Нескучная, 3
56.740613;60.543147;Банкомат, Сбербанк, ПАО;;Нескучная, 3, 1 этаж
56.740613;60.543147;Банкомат, Сбербанк, ПАО;;Нескучная, 3
56.740613;60.543147;Французский Пекарь;сеть кофеен-пекарен;Нескучная, 3, 1 этаж
56.740613;60.543147;Gud Men;мини-кофейня;Нескучная, 3
56.740613;60.543147;Кидспарк;детский игровой зал;Нескучная, 3, 1 этаж
56.740613;60.543147;Кидспарк;детский игровой зал;Нескучная, 3, 1 этаж
56.740736;60.679935;Нижнеисетская;лыжная база;Стаханова, 65
56.740736;60.679935;Нижнеисетская;лыжная база;Стаханова, 65
56.740785;60.608317;Лилия;парикмахерская;Бисертская, 4, 1 этаж
56.740948;60.608536;ФармМедТорг;сеть аптек;Бисертская, 4, 1 этаж
56.741064;60.608699;Hi-Printer;центр заправки картриджей;Бисертская, 4
56.741314;60.607655;АЛАРИС;оптовая компания;Бисертская, 1
56.741344;60.60768;Банкомат, Сбербанк, ПАО;;Бисертская, 1, 1 этаж
56.741605;60.610654;Семейная;парикмахерская;Бисертская, 12, 1 этаж
56.741819;60.608613;Вуаль;банкетный зал;Бисертская, 1а, 1 этаж
56.741819;60.608613;Сели Поели;столовая;Бисертская, 1а
56.741876;60.608392;Казан;кафе;Бисертская, 1а, цокольный этаж
56.741953;60.60883;МЕДПОЛИМЕРСЕРВИС;медицинский центр;Бисертская, 1а, 1 этаж
56.742618;60.609041;СБТ-сервис;сервисный центр;Бисертская, 1с
56.742618;60.609041;Мастерская бытовых услуг;;Бисертская, 1с
56.743088;60.611917;Елизаветинский;дом культуры;Бисертская, 14
56.743159;60.939771;Висол;кафе;Высоцкого, 2а
56.743429;60.603015;КлиЭйнджэл;торговая компания;Селькоровская, 116а, 3 этаж
56.744284;60.567457;Бахус;магазин;Лучистая, 4, 7 подъезд
56.744284;60.567457;Бахус;магазин;Лучистая, 4, 7 подъезд
56.744309;60.567523;Степашка;магазин гелиевых шариков;Лучистая, 4, 1 этаж
56.744311;60.612577;Qiwi;сеть платежных терминалов;Бисертская, 23/1
56.744311;60.612577;Европейская булочная-пекарня;;Бисертская, 23/1
56.744351;60.567639;Zоополис;зоомагазин;Лучистая, 4
56.744357;60.707023;Ветеринарный кабинет;ИП Бабкин А.А.;Революции, 90
56.744517;60.936071;Короли драйва;компания по прокату и аренде квадроциклов, снегоходов и кроссовых мотоциклов;Булгакова, 2
56.744517;60.936071;Короли драйва;компания по прокату и аренде квадроциклов, снегоходов и кроссовых мотоциклов;Булгакова, 2
56.744577;60.568882;OZON Box;сеть автоматизированных пунктов выдачи;Лучистая, 4а
56.744601;60.694246;Kirby66;компания;Димитрова, 17е
56.744601;60.694246;Qiwi;сеть платежных терминалов;Димитрова, 17е, 1 этаж
56.744695;60.614011;Теплая постель;магазин;Бисертская, 26, 2 этаж, супермаркет Кировский
56.744695;60.614011;ЗооКот;магазин зоотоваров и товаров для рыбалки;Бисертская, 26, 2 этаж, супермаркет Кировский
56.744695;60.614011;Telepay;сеть платежных терминалов;Бисертская, 26, 1 этаж, супермаркет Кировский
56.744695;60.614011;Иннамир;торгово-сервисный центр;Бисертская, 26, 2 этаж, супермаркет Кировский
56.744695;60.614011;Банкомат, Банк ФК Открытие, ПАО;;Бисертская, 26, 1 этаж, супермаркет Кировский
56.744695;60.614011;Банкомат, Банк ВТБ, ПАО;;Бисертская, 26, 1 этаж, супермаркет Кировский
56.744695;60.614011;Банкомат, Сбербанк, ПАО;;Бисертская, 26, 1 этаж
56.744695;60.614011;ЛОМБАРД ПЕРВЫЙ;;Бисертская, 26, 1 этаж, супермаркет Кировский
56.744695;60.614011;Столото;сеть киосков по продаже лотерейных билетов;Бисертская, 26, 2 этаж, магазин Теплая постель
56.744707;60.60447;Восток-Сервис Екатеринбург;торговая компания;Селькоровская, 114
56.744732;60.614064;Telepay;сеть платежных терминалов;Бисертская, 26, 1 этаж
56.74478;60.614133;ВитаЭкспресс;сеть аптек;Бисертская, 26, 1 этаж
56.744781;60.694415;MEGA планета;магазин одежды и обуви для всей семьи;Димитрова, 17е, 2 этаж
56.744781;60.694415;Telepay;сеть платежных терминалов;Димитрова, 17е, 1 этаж
56.7448;60.614246;Домашний;магазин товаров для дома;Бисертская, 26, 1 этаж
56.744809;60.694336;Варна;кафе-подворье;Димитрова, 17е, цокольный этаж
56.744809;60.694336;Шоколад;банкетный зал;Димитрова, 17е, цокольный этаж
56.745055;60.694122;Академия Игр;оптовая компания;Димитрова, 17
56.745087;60.692887;ТЕПЛОТА tex;шоу-рум;Димитрова, 17а, 1 этаж
56.745094;60.569771;Qiwi;сеть платежных терминалов;Лучистая, 2
56.745094;60.569771;Банкомат, Сбербанк, ПАО;;Лучистая, 2, 1 этаж
56.745122;60.567031;MILANI Beauty;;Лучистая, 4, 5 этаж
56.745247;60.663519;Динамо;лыжная база;Караванная, 2
56.745247;60.663519;Динамо;лыжная база;Караванная, 2
56.745249;60.615675;Банкомат, Сбербанк, ПАО;;Бисертская, 26, 1 этаж
56.745306;60.61548;Платежный терминал, Сбербанк, ПАО;;Бисертская, 26, 1 этаж
56.745306;60.61548;Сбербанк;;Бисертская, 26, 1 этаж
56.745312;60.570235;Барвинок;аптека;Лучистая, 2, 1 этаж
56.74536;60.60471;Наш двор;кафе;Селькоровская, 114в
56.74536;60.60471;Наш двор;кафе;Селькоровская, 114в
56.745366;60.588568;Жасмин;сельскохозяйственное предприятие;Энергетиков переулок, 17а
56.745388;60.604448;Сауна На Селькоровской;;Селькоровская, 114в, 1 этаж
56.745388;60.604448;Сауна На Селькоровской;;Селькоровская, 114в, 1 этаж
56.745429;60.570456;Copy-sunny;копировальный центр;Лучистая, 2
56.745429;60.570456;Boxberry;отделение службы доставки;Лучистая, 2, 1 этаж
56.745429;60.570456;СервисЕкб;сервисный центр;Лучистая, 2
56.745499;60.937016;Telepay;сеть платежных терминалов;Свердлова, 13а/3, 1 этаж
56.745551;60.570685;Не просто бар;;Лучистая, 2
56.745819;60.605279;Рыбачий;магазин рыболовных товаров;Селькоровская, 112
56.745827;60.567865;ВитаЭкспресс;сеть аптек;Счастливая, 4, 1 этаж
56.74592;60.569247;Sunny beauty room;студия красоты;Лучистая, 2, 1 этаж, 2 подъезд
56.745957;60.567433;Qiwi;сеть платежных терминалов;Счастливая, 4
56.745996;60.690131;Telepay;сеть платежных терминалов;Димитрова, 1
56.746125;60.688724;Насадочная;магазин товаров для рыбалки;Димитрова, 2/1
56.746131;60.606478;Бистро;ИП Манукян А.М.;Селькоровская, 109
56.746766;60.707573;MajorPen;интернет-магазин;Водная, 19, 9 офис, 1 этаж
56.746766;60.707573;ПАРКЕР66;интернет-магазин;Водная, 19, 9 офис, 1 этаж
56.746766;60.707573;ОФИС СИТИ 66;интернет-магазин;Водная, 19, 9 офис, 1 этаж
56.746766;60.707573;ПОДАРИ96;интернет-магазин;Водная, 19, 9 офис, 1 этаж
56.746766;60.707573;Автограф-Е;оптовая компания;Водная, 19, 9 офис, 1 этаж
56.746766;60.707573;Торговый дом Гор;;Водная, 19, 4 офис, 1 этаж
56.746774;60.606008;Telepay;сеть платежных терминалов;Селькоровская, 108, 1 этаж
56.746774;60.606008;Магазин товаров для пикника и хозяйственных товаров;;Селькоровская, 108
56.746787;60.707165;Qiwi;сеть платежных терминалов;Водная, 19/1
56.747081;60.564584;Заповедник;сеть зооцентров;Золотистый бульвар, 4
56.747105;60.564523;Ciao pizza & burgers;ресторан;Золотистый бульвар, 4, 2 офис, 1 этаж
56.747173;60.564598;МАРГО;салон красоты;Золотистый бульвар, 4, 6 офис, 1 этаж
56.747272;60.606332;Платежный терминал;ИП Казанцева Е.С.;Селькоровская, 106/1
56.747302;60.933617;Telepay;сеть платежных терминалов;Свердлова, 7а, 1 этаж
56.747337;60.606385;Киоск по продаже печатной продукции;;Селькоровская, 106 киоск
56.747616;60.618017;У Михаила;фотосалон;Бисертская, 34, цокольный этаж, около ателье Журавль
56.747616;60.618017;Журавль;швейное ателье;Бисертская, 34, цокольный этаж
56.747616;60.618017;Estel;салон красоты;Бисертская, 34, цокольный этаж
56.747839;60.937264;Telepay;сеть платежных терминалов;Карла Маркса, 11а
56.747851;60.619018;Фаберлик;центр заказов по каталогам;Бисертская, 36
56.747851;60.619018;Фаберлик;центр заказов по каталогам;Бисертская, 36
56.747883;60.606568;Qiwi;сеть платежных терминалов;Селькоровская, 104, 1 этаж
56.747904;60.61825;Пластик;сеть магазинов хозяйственных товаров;Бисертская, 34, цокольный этаж
56.748053;60.618491;Qiwi;сеть платежных терминалов;Бисертская, 34, 1 этаж
56.748117;60.700276;Торгово-производственная компания;ИП Баркан В.Л.;Революции, 29, 2 этаж
56.748664;60.931373;Qiwi;сеть платежных терминалов;Свердлова, 2Б
56.748695;60.70398;Qiwi;сеть платежных терминалов;Водная, 13/1, 1 этаж
56.748824;60.931091;Telepay;сеть платежных терминалов;Свердлова, 1г
56.748887;60.680779;Qiwi;сеть платежных терминалов;Пархоменко, 41, 1 этаж
56.74889;60.930976;Огонек;закусочная;Свердлова, 1г
56.749036;60.607024;Екатеринбург-Фармация;аптека;Селькоровская, 100/1, 1 этаж
56.749314;60.697443;Гарант-СТ;ремонтная мастерская;Косарева, 5, 1 этаж
56.749358;60.618042;Пар.ОК;баня;Бисертская, 87
56.749399;60.607168;Сотка;бытовой магазин;Селькоровская, 100/1, 1 этаж
56.749399;60.607168;Сотка;бытовой магазин;Селькоровская, 100/1, 1 этаж
56.749446;60.698148;Екатеринбург;библиотечный центр;Косарева, 7, 1 этаж
56.74985;60.976356;Лаззат;кафе;Тюменский тракт 28 км, 1а
56.749855;60.800983;Amigo;сеть платежных терминалов;Аэропорт Кольцово, Бахчиванджи площадь, 1, терминал А, 2 этаж
56.749857;60.804499;Piccolo;кафе;Аэропорт Кольцово, Бахчиванджи площадь, 1, терминал Б, 2 этаж
56.749871;60.60783;Lavantel;студия биочистки;Селькоровская, 100
56.749876;60.693795;Праздничный Портной;ателье;Грибоедова, 2, 1 этаж
56.749921;60.801248;Misha & Teddy;мини-кафе;Аэропорт Кольцово, Бахчиванджи площадь, 1, терминал А, 2 этаж
56.749945;60.799919;FALKE;магазин чулочно-носочных изделий и спортивной одежды;Аэропорт Кольцово, Бахчиванджи площадь, 1, терминал А
56.749953;60.799596;Foto Fun Strips;фотокабина;Аэропорт Кольцово, Бахчиванджи площадь, 1, терминал А, 2 этаж
56.749961;60.804372;Хорошие новости;сеть мини-маркетов печатной продукции;Аэропорт Кольцово, Бахчиванджи площадь, 1, терминал Б, 2 этаж, Международный терминал
56.749985;60.803349;Amigo;сеть платежных терминалов;Аэропорт Кольцово, Бахчиванджи площадь, 1, терминал B, 2 этаж
56.749989;60.800589;Toys;магазин развивающих игрушек;Аэропорт Кольцово, Бахчиванджи площадь, 1, терминал А, 2 этаж
56.750041;60.802155;Grizzly Diner;бар-ресторан;Аэропорт Кольцово, Бахчиванджи площадь, 1, терминал А, 2 этаж
56.750046;60.801643;Trevel Value;магазин;Аэропорт Кольцово, Бахчиванджи площадь, 1, терминал А, 2 этаж
56.750079;60.800991;Мамуля;семейный ресторан;Аэропорт Кольцово, Бахчиванджи площадь, 1, терминал А, 2 этаж
56.750094;60.80062;Шоколадница;сеть кофеен;Аэропорт Кольцово, Бахчиванджи площадь, 1, терминал В, 2 этаж
56.750097;60.799839;Сысертский Фарфор;фирменный магазин;Аэропорт Кольцово, Бахчиванджи площадь, 1, терминал А, 2 этаж
56.750109;60.799759;Black & White;кофейня;Аэропорт Кольцово, Бахчиванджи площадь, 1, терминал А, 1 этаж
56.750149;60.799615;Банкомат, Сбербанк, ПАО;;Аэропорт Кольцово, Бахчиванджи площадь, 1, терминал А, 2 этаж
56.750189;60.803107;Дюжина;сеть пельменных;Аэропорт Кольцово, Бахчиванджи площадь, 1
56.750192;60.799789;Fame;мини-маркет;Аэропорт Кольцово, Бахчиванджи площадь, 1, терминал А, 2 этаж, аэропорт Кольцово
56.750192;60.79992;Здоровые люди;аптека;Аэропорт Кольцово, Бахчиванджи площадь, 1, терминал А, 2 этаж
56.750214;60.801731;GrenkiPub;пивной ресторан;Аэропорт Кольцово, Бахчиванджи площадь, 1, терминал А, 1 этаж
56.750252;60.757254;Alaru;столовая;Черняховского, 106, 2 этаж
56.75034;60.803714;Евросеть;сеть салонов связи;Аэропорт Кольцово, Бахчиванджи площадь, 1, терминал В, 1 этаж
56.75034;60.803633;Меткомбанк;;Аэропорт Кольцово, Бахчиванджи площадь, 1, терминал В, 1 этаж
56.75034;60.803788;Сбербанк;;Аэропорт Кольцово, Бахчиванджи площадь, 1, терминал B, 1 этаж
56.75034;60.803559;Здоровые люди;аптека;Аэропорт Кольцово, Бахчиванджи площадь, 1, терминал Б, 1 этаж
56.750341;60.802462;MOBI-AKS;сеть автоматов по продаже аксессуаров к мобильным телефонам;Аэропорт Кольцово, Бахчиванджи площадь, 1, 2 этаж
56.750349;60.803611;Банкомат, Меткомбанк, ПАО;;Аэропорт Кольцово, Бахчиванджи площадь, 1, терминал В, 1 этаж
56.750352;60.803793;Платежный терминал, Сбербанк, ПАО;;Аэропорт Кольцово, Бахчиванджи площадь, 1, терминал Б, 1 этаж
56.750352;60.803765;Банкомат, Сбербанк, ПАО;;Аэропорт Кольцово, Бахчиванджи площадь, 1, терминал Б, 1 этаж
56.750366;60.804832;Банкомат, Газпромбанк, АО;;Аэропорт Кольцово, Бахчиванджи площадь, 1, терминал Б, 1 этаж
56.750375;60.804832;Банкомат, Банк ВТБ, ПАО;;Аэропорт Кольцово, Бахчиванджи площадь, 1, терминал Б, 1 этаж
56.750384;60.804833;Банкомат, Сбербанк, ПАО;;Аэропорт Кольцово, Бахчиванджи площадь, 1, терминал А, 1 этаж
56.750404;60.802547;Amigo;сеть платежных терминалов;Аэропорт Кольцово, Бахчиванджи площадь, 1, терминал А, 1 этаж, напротив кафе Piccolo
56.750409;60.70589;Новая больница;сеть аптек;Косарева, 15, 1 этаж
56.750415;60.800395;Банкомат, Альфа-банк, АО;;Аэропорт Кольцово, Бахчиванджи площадь, 1, терминал А, 1 этаж, напротив кафе Крошка-Картошка
56.750415;60.800411;Банкомат, Банк ВТБ, ПАО;;Аэропорт Кольцово, Бахчиванджи площадь, 1, 1 этаж
56.750415;60.800379;Банкомат, Сбербанк, ПАО;;Аэропорт Кольцово, Бахчиванджи площадь, 1, терминал А, 1 этаж, напротив кафе Крошка-Картошка
56.750415;60.800362;Банкомат, Сбербанк, ПАО;;Аэропорт Кольцово, Бахчиванджи площадь, 1, терминал А, 1 этаж, напротив кафе Крошка-Картошка
56.750422;60.80397;Amigo;сеть платежных терминалов;Аэропорт Кольцово, Бахчиванджи площадь, 1, терминал Б, 1 этаж
56.750428;60.800997;Amigo;сеть платежных терминалов;Аэропорт Кольцово, Бахчиванджи площадь, 1, 1 этаж
56.750434;60.800517;MOBI-AKS;сеть автоматов по продаже аксессуаров к мобильным телефонам;Аэропорт Кольцово, Бахчиванджи площадь, 1, 1 этаж
56.750453;60.802675;Piccolo;кафе;Аэропорт Кольцово, Бахчиванджи площадь, 1, терминал Б, 1 этаж
56.75046;60.800689;Балкан Гриль экспресс;кафе;Аэропорт Кольцово, Бахчиванджи площадь, 1, терминал А, 2 этаж
56.750464;60.801147;Coffeeshop Company;венская кофейня;Аэропорт Кольцово, Бахчиванджи площадь, 1, терминал А, 1 этаж
56.750472;60.804262;КБ Солидарность;;Аэропорт Кольцово, Бахчиванджи площадь, 1, терминал А, 1 этаж
56.750473;60.801364;Heinemann Travel Value;магазин аксессуаров;Аэропорт Кольцово, Бахчиванджи площадь, 1, 2 этаж
56.750473;60.801364;BULLFINCH;магазин дизайнерской одежды российского производства;Аэропорт Кольцово, Бахчиванджи площадь, 1, терминал А, 2 этаж
56.750473;60.801364;ДХЛ Интернешнл;;Аэропорт Кольцово, Бахчиванджи площадь, 1, терминал А, 2 этаж, авиакасса Уральские авиалинии
56.750473;60.801364;Шоколадница;сеть кофеен;Аэропорт Кольцово, Бахчиванджи площадь, 1, терминал А, 2 этаж
56.750473;60.801364;Heinemann Duty Free;магазин беспошлинной торговли;Аэропорт Кольцово, Бахчиванджи площадь, 1
56.750473;60.801364;Heinemann Travel Value;магазин аксессуаров;Аэропорт Кольцово, Бахчиванджи площадь, 1, 2 этаж
56.750473;60.801364;Charter`s pub;кафе;Аэропорт Кольцово, Бахчиванджи площадь, 1, терминал А
56.750473;60.801364;Skymania;кафе;Аэропорт Кольцово, Бахчиванджи площадь, 1, терминал А, 1 этаж
56.750595;60.707689;Qiwi;сеть платежных терминалов;Инженерная, 19а, 1 этаж, универсам Магнит
56.750652;60.709176;Telepay;сеть платежных терминалов;Инженерная, 19, 1 этаж, супермаркет Кировский
56.750652;60.709176;Банкомат, Сбербанк, ПАО;;Инженерная, 19, 1 этаж, супермаркет Кировский
56.750752;60.755916;Банкомат, Меткомбанк, ПАО;;Черняховского, 106
56.750769;60.62055;Qiwi;сеть платежных терминалов;Бисертская, 108/1
56.750805;60.710907;Стоматологическая поликлиника №9;;Академика Губкина, 76
56.750905;60.693811;Telepay;сеть платежных терминалов;Грибоедова, 6, 1 этаж
56.750905;60.693811;Магазин игрушек;;Грибоедова, 6, 1 этаж
56.750905;60.693811;Магазин наливных духов;;Грибоедова, 6, 1 этаж
56.750973;60.79903;Авиапочта Урала;служба доставки почты, корреспонденции и грузов;Отель Angelo Екатеринбург, Бахчиванджи, 55а, 1 этаж, авиакомпания UTair
56.750973;60.79903;Банкомат, Меткомбанк, ПАО;;Отель Angelo Екатеринбург, Бахчиванджи, 55а
56.750973;60.79903;Jazz Bar & Lounge;кафе-бар;Отель Angelo Екатеринбург, Бахчиванджи, 55а, 1 этаж
56.750973;60.79903;Sunlight;ресторан;Отель Angelo Екатеринбург, Бахчиванджи, 55а, 2 этаж
56.750973;60.79903;ANGELO BY VIENNA HOUSE EKATERINBURG;отель;Отель Angelo Екатеринбург, Бахчиванджи, 55а
56.750973;60.79903;Sunlight;ресторан;Отель Angelo Екатеринбург, Бахчиванджи, 55а, 2 этаж
56.751008;60.692083;Мастер`ОК!;мастерская;Орденоносцев, 2, 1 этаж, торговая сеть Монетка
56.751008;60.692083;Норд;сеть магазинов;Орденоносцев, 2, 2 этаж
56.751008;60.692083;Qiwi;сеть платежных терминалов;Орденоносцев, 2
56.751008;60.692083;Банкомат, Сбербанк, ПАО;;Орденоносцев, 2, 1 этаж, торговая сеть Монетка
56.751039;60.620333;Telepay;сеть платежных терминалов;Бисертская, 103, 1 этаж
56.751039;60.620333;Банкомат, Уральский банк реконструкции и развития, ПАО;;Бисертская, 103, супермаркет Кировский
56.751039;60.620333;Банкомат, Сбербанк, ПАО;;Бисертская, 103, 1 этаж, супермаркет Кировский
56.751039;60.620333;Столет;аптечная сеть;Бисертская, 103, супермаркет Кировский
56.751072;60.705793;AVS Кристалл;оздоровительно-спортивный комплекс;AVS Кристалл, Зои Космодемьянской, 46Б
56.751074;60.790375;Столовая;;Бахчиванджи, 63, 1 этаж
56.751109;60.812972;У Михалыча;столовая;Бахчиванджи, 41 лит Ж, 1 этаж
56.751109;60.812972;У Михалыча;столовая;Бахчиванджи, 41 лит Ж, 1 этаж
56.75119;60.808564;Екатерина;кафе;Гостиница Лайнер Аэропорт Отель, Бахчиванджи площадь, 3, 1 этаж
56.75119;60.808564;Екатерина;кафе;Гостиница Лайнер Аэропорт Отель, Бахчиванджи площадь, 3, 1 этаж
56.751202;60.700439;Qiwi;сеть платежных терминалов;Бородина, 4, 1 этаж, магазин Самовар
56.751239;60.812927;Политех;компания;Бахчиванджи, 41 лит Ж, 5 офис, 3 этаж
56.751255;60.701383;Qiwi;сеть платежных терминалов;Бородина, 4а, 1 этаж, магазин Манго
56.751255;60.813293;Аэролевел;транспортная компания;Бахчиванджи, 41 лит Д, 1 этаж
56.751268;60.703918;Радуга;аптечная сеть;Зои Космодемьянской, 42, 1 этаж
56.751268;60.703918;Поликлиническое отделение №1;Центральная городская больница №20;Зои Космодемьянской, 42
56.751269;60.703676;Травмпункт;Центральная городская больница №20;Зои Космодемьянской, 42, 111 офис, 1 этаж
56.751321;60.701381;SMART Elements;компания;Бородина, 4а, цокольный этаж
56.751321;60.712657;Шелковый путь;Уральская торговая компания;Академика Губкина, 79
56.75146;60.694187;Qiwi;сеть платежных терминалов;Грибоедова, 8, 1 этаж, магазин Пятёрочка
56.75146;60.694187;Банкомат, Сбербанк, ПАО;;Грибоедова, 8, 1 этаж, сеть Пятёрочка
56.751567;60.706264;Юлия;Столовая;Зои Космодемьянской, 46, 1 этаж
56.751592;60.670424;Тамада;арт-компания;Весенняя, 139
56.751662;60.618211;Библиотека №30 им. К.Ф. Рылеева;;Колхозников, 52, 1 этаж
56.751722;60.692811;Экран;центр культуры;ЦК Экран, Грибоедова, 3
56.751743;60.703718;Семейная;парикмахерская;Зои Космодемьянской, 39, 1 этаж
56.751797;60.6222;Елизаветинские бани;оздоровительный комплекс;Бисертская, 118
56.751824;60.807664;Аэрокафе;столовая;Бахчиванджи площадь, 4, 1 этаж
56.751869;60.691246;Медлайн;медицинский центр;Орденоносцев, 4, 1 этаж
56.751915;60.693463;Покупки 96;магазин;Грибоедова, 9
56.751915;60.693463;Усадьба;магазин для садоводов;Грибоедова, 9, 1 этаж
56.751915;60.693463;Марина;швейное ателье;Грибоедова, 9, автошкола Т.У.Р. АВТО
56.751915;60.693463;Прачка96;;Грибоедова, 9, вход с торца, ателье Марина
56.751928;60.706187;Леди Стиль;салон красоты;Зои Космодемьянской, 43, 1 этаж
56.751956;60.705881;Оберон плюс;медицинский центр;Зои Космодемьянской, 43, 1 этаж
56.752002;60.732448;ТОРГОВЫЙ ДОМ МЕРКУРИЙ;оптовая компания;Черняховского, 68, 208 офис, 2 этаж
56.752002;60.732448;Кварта–Сервис;фирма;Черняховского, 68, 210 офис, 2 этаж
56.752002;60.732448;Банкомат, Сбербанк, ПАО;;Черняховского, 68, 1 этаж
56.752002;60.732448;Столовая;ИП Цой Л.И.;Черняховского, 68, 1 этаж
56.752032;60.699695;Qiwi;сеть платежных терминалов;Бородина, 15Б, 1 этаж, торговая сеть Монетка
56.752043;60.727468;Тайны Востока;оздоровительный комплекс;Косарева, 28, 1 этаж
56.752138;60.694672;Радуга;сеть магазинов игрушек;Грибоедова, 10, 1 этаж
56.752142;60.704879;ДЛЯ ВАС;магазин;Многостаночников переулок, 8, цокольный этаж
56.752185;60.709452;Шелковый путь;Уральская торговая компания;Инженерная, 28, 1 этаж
56.752195;60.816979;Qiwi;сеть платежных терминалов;Бахчиванджи, 28/1
56.752195;60.816979;Шиш Кебаб;шашлычная;Бахчиванджи, 28/1
56.752235;60.694797;Венеция;сеть салонов красоты;Грибоедова, 10, 1 этаж
56.752428;60.737143;ИНТЕРМАГ;интернет-магазин сантехники и напольных покрытий;Черняховского, 70
56.752449;60.694371;Киоск по продаже печатной продукции;;Грибоедова, 9а киоск
56.752516;60.709276;Городские аптеки;;Инженерная, 30, 1 этаж
56.752551;60.709431;Тёмка;интернет-магазин игрушек;Инженерная, 30
56.752598;60.705888;Надежда;салон;Черняховского, 40, 1 этаж
56.752628;60.758125;Все для детей;компания;Черняховского, 92, 1 этаж
56.752628;60.758125;Мила;оптовая компания;Черняховского, 92, 2 этаж
56.752628;60.758125;Junited;оптовая компания;Черняховского, 92, 2 этаж
56.75263;60.704912;Qiwi;сеть платежных терминалов;Многостаночников переулок, 10, 1 этаж
56.75269;60.621436;Почтовое отделение №24;;Бисертская, 131а
56.75269;60.621436;Почта Банк;;Бисертская, 131а, 1 этаж
56.752755;60.708704;Qiwi;сеть платежных терминалов;Инженерная, 29
56.752756;60.708301;Telepay;сеть платежных терминалов;Черняховского, 40, 1 этаж, супермаркет Кировский
56.752756;60.708301;Банкомат, Альфа-банк, АО;;Черняховского, 40, 1 этаж, супермаркет Кировский
56.752756;60.708301;Банкомат, Газпромбанк, АО;;Черняховского, 40, 1 этаж, супермаркет Кировский
56.752756;60.708301;Банкомат, Уральский банк реконструкции и развития, ПАО;;Черняховского, 40, 1 этаж, супермаркет Кировский
56.752756;60.708301;Банкомат, Сбербанк, ПАО;;Черняховского, 40, 1 этаж
56.752839;60.62151;Скарлетт;парикмахерская;Бисертская, 131а, 1 этаж, Почтовое отделение №24
56.752878;60.703007;Библиотека №27 им. А.Н. Радищева;;Черняховского, 35, 1 этаж
56.752891;60.695963;Живое слово;сеть магазинов;Грибоедова, 12, 1 этаж
56.75296;60.696162;Витаминка;аптека;Грибоедова, 12, 1 этаж
56.752985;60.674029;Qiwi;сеть платежных терминалов;Кутузова, 90, 1 этаж
56.753005;60.696295;Валета;аптека;Грибоедова, 12, 1 этаж
56.753037;60.696389;Фармленд;сеть аптек;Грибоедова, 12, 1 этаж
56.753064;60.708436;Киоск по продаже печатной продукции;;Черняховского, 47 киоск
56.753094;60.818473;Telepay;сеть платежных терминалов;Бахчиванджи, 23
56.753125;60.707858;Медея;сеть аптек;Инженерная, 31, 1 этаж
56.753146;60.708284;Молоток;строительный магазин;Инженерная, 31, 1 этаж
56.753192;60.697076;ПОБЕДА;автоломбард;Грибоедова, 14, 1 этаж
56.753222;60.692792;Сюрприз;студия праздника;Грибоедова, 11а, 19 офис, цокольный этаж
56.753227;60.708435;Живика;сеть аптек;Инженерная, 31, 1 этаж
56.753243;60.697324;NataLi;студия красоты;Грибоедова, 14, 1 этаж
56.75325;60.622535;Qiwi;сеть платежных терминалов;Бисертская, 131/1
56.753255;60.706479;Платежный терминал, Сбербанк, ПАО;;Черняховского, 43, 1 этаж
56.753255;60.706479;Сбербанк;;Черняховского, 43, 1 этаж
56.753266;60.706717;Банкомат, Сбербанк, ПАО;;Черняховского, 43, 1 этаж
56.753309;60.708473;Садовый Рай;магазин товаров для сада;Инженерная, 31, 1 этаж
56.753338;60.622666;Роспечать;сеть киосков и магазинов по продаже печатной продукции;Бисертская, 131а киоск
56.753388;60.622686;Киоск по продаже печатной продукции;;Бисертская, 131 киоск
56.753433;60.621023;muzi_studioekb;;Молотобойцев, 5, цокольный этаж
56.753442;60.708413;Эталон;салон-парикмахерская;Инженерная, 31, 1 этаж
56.753513;60.696747;Сундучок;ломбард;Грибоедова, 15, 1 этаж
56.75352;60.704026;Евросвет;магазин товаров для дома;Многостаночников переулок, 13, 1 этаж
56.75352;60.704026;Эстель;магазин профессиональной косметики;Многостаночников переулок, 13, 1 этаж
56.75354;60.69876;Остров сокровищ;магазин детских товаров;Грибоедова, 16, 1 этаж
56.75354;60.69876;Сезон;магазин одежды;Грибоедова, 16, 1 этаж
56.753541;60.696885;ИНВИТРО;сеть медицинских компаний;Грибоедова, 15, 1 этаж
56.753573;60.697037;Ногтёфф;студия ногтевого сервиса;Грибоедова, 15, 1 этаж
56.753574;60.698924;Уральский садовод;сеть магазинов;Грибоедова, 16, 1 этаж
56.753582;60.675492;МАРС;приют для бездомных животных;Пархоменко, 97
56.753602;60.622653;Сеть салонов бытовых услуг;ИП Манукян А.М.;Бисертская, 133, 1 этаж
56.753603;60.708428;Алиса;магазин зоотоваров;Инженерная, 33, 1 этаж
56.753611;60.699099;Profmax;магазин одежды и обуви для жизни;Грибоедова, 16, 1 этаж
56.753629;60.622996;Ломбард Корунд;ломбард;Бисертская, 133, 1 этаж
56.753629;60.622996;Telepay;сеть платежных терминалов;Бисертская, 133, 1 этаж
56.753633;60.697325;Леос;пиццерия;Грибоедова, 15, 1 этаж
56.753639;59.922758;Лесная Жемчужина;оздоровительный комплекс;Ревдинское лесничество, 108 квартал, 1
56.753644;60.62301;Спортивное PITANIE888;магазин спортивного питания;Бисертская, 133, 1 этаж
56.753644;60.713247;РЫБОЛОВ-СПОРТСМЕН;оптово-розничная компания;Черняховского, 55/1, 1 бокс
56.753645;60.622509;Живика;сеть аптек;Бисертская, 133, 1 этаж
56.753665;60.694248;Банкомат, Уральский банк реконструкции и развития, ПАО;;AVS Химмаш, Грибоедова, 13, 1 этаж
56.753676;60.690727;Fun Formula;;Орденоносцев, 10, цокольный этаж
56.753685;60.694302;Четыре лапки;зоомагазин;AVS Химмаш, Грибоедова, 13, 1 этаж
56.753685;60.694302;Ультра;сервисный центр;AVS Химмаш, Грибоедова, 13, 7 офис, 1 этаж
56.753685;60.694302;Telepay;сеть платежных терминалов;AVS Химмаш, Грибоедова, 13, 1 этаж
56.753685;60.694302;Ивановский трикотаж;магазин;AVS Химмаш, Грибоедова, 13
56.753685;60.694302;Планета Солнца;студия загара;AVS Химмаш, Грибоедова, 13, 1 этаж
56.753685;60.694302;Жаклин;кафе;AVS Химмаш, Грибоедова, 13, 1 этаж
56.753685;60.694302;Огневушка Поскакушка;студия музыкально-театрального развития;AVS Химмаш, Грибоедова, 13, 70 офис, 3 этаж
56.753686;60.703924;Алиса;магазин зоотоваров;Многостаночников переулок, 13, цокольный этаж
56.753686;60.703924;Сервисный центр по ремонту компьютеров;;Многостаночников переулок, 13, цокольный этаж
56.753702;60.809923;Дом культуры авиаработников;;ДК Авиаработников, Утренний переулок, 2
56.753703;60.69435;Банкомат, СКБ-банк, ПАО;;AVS Химмаш, Грибоедова, 13, 1 этаж
56.75371;60.690739;ABC;аптека;Орденоносцев, 10, 1 этаж
56.75372;60.621039;Telepay;сеть платежных терминалов;Молотобойцев, 5, 1 этаж
56.753724;60.699782;Profmax;магазин одежды и обуви для жизни;Грибоедова, 18, 1 этаж
56.753734;60.69983;Банкомат, Уральский банк реконструкции и развития, ПАО;;Грибоедова, 18
56.753748;60.621067;DaVinci;зуботехническая лаборатория;Молотобойцев, 5, 2 этаж
56.753791;60.624253;Большая Медведица;центр развития и творчества;Бисертская, 128
56.753812;60.698191;Ломбард Гарант;;Грибоедова, 17, 1 этаж
56.753833;60.700307;Qiwi;сеть платежных терминалов;Бородина, 20, 1 этаж, универсам Магнит у дома
56.753887;60.700575;Атланттекс;сеть магазинов ткани и фурнитуры;Грибоедова, 18, 1 этаж
56.753924;60.698734;СМАРТЛАЙН;магазин электроники;Грибоедова, 17, 1 этаж
56.753958;60.698895;Поклевка;рыболовный магазин;Грибоедова, 17, 1 этаж
56.753958;60.698895;Мираж;сервисный центр;Грибоедова, 17
56.753958;60.698895;Zарядниk;сеть торгово-сервисных центров;Грибоедова, 17, цокольный этаж
56.75396;60.700919;Живика;сеть аптек;Грибоедова, 20, 1 этаж
56.753964;60.704415;Герои кофе;кофейня;Многостаночников переулок, 16, 1 этаж
56.753984;60.701038;Билайн;сеть офисов продаж;Грибоедова, 20, 1 этаж
56.753984;60.701038;Qiwi;сеть платежных терминалов;Грибоедова, 20, цокольный этаж, Ателье
56.753984;60.701038;Qiwi;сеть платежных терминалов;Грибоедова, 20, 1 этаж, офис продаж Билайн
56.753985;60.694786;Ультра;диагностический кабинет;AVS Химмаш, Грибоедова, 13, 14 офис, 1 этаж
56.753995;60.62325;ЗооКот;магазин зоотоваров и товаров для рыбалки;Бисертская, 135, 1 этаж
56.753995;60.62325;Фрирайд;центр проката сноубордов, лыж, коньков;Бисертская, 135, 1 этаж
56.754009;60.701157;Связной;сеть платежных терминалов;Грибоедова, 20
56.754009;60.701157;Связной;сеть платежных терминалов;Грибоедова, 20, 1 этаж
56.754009;60.701157;Связной;сеть салонов связи;Грибоедова, 20
56.754041;60.69947;Роспечать;киоск по продаже печатной продукции;Грибоедова, 19 киоск
56.754067;60.701437;Плюс+;сеть магазинов бытовой химии и косметики;Грибоедова, 20, 1 этаж
56.754067;60.701437;Плюс+;сеть магазинов бытовой химии и косметики;Грибоедова, 20, 1 этаж
56.754106;60.818792;БОНЯША;магазин;Бахчиванджи, 19
56.754106;60.818792;Норд;сеть магазинов;Бахчиванджи, 19
56.754109;60.699695;Магмика;сеть магазинов канцелярских товаров;Грибоедова, 19
56.754128;60.699748;Qiwi;сеть платежных терминалов;Грибоедова, 19
56.754151;60.701813;Qiwi;сеть платежных терминалов;Грибоедова, 20, 1 этаж, оператор TELE2
56.754154;60.701598;Мотив;оператор сотовой связи;Грибоедова, 20/1
56.754154;60.701598;Qiwi;сеть платежных терминалов;Грибоедова, 20/1
56.754161;60.708813;Александра;салон бытовых услуг;Инженерная, 34, цокольный этаж
56.754171;60.701941;Amigo;сеть платежных терминалов;Грибоедова, 20, 1 этаж, салон Евросеть
56.754171;60.701941;Евросеть;сеть салонов связи;Грибоедова, 20, 1 этаж
56.754183;60.691794;Полтинник;мебельный центр;Профсоюзная, 43, А сектор, -2, -1, 1 этаж
56.754183;60.691794;Нега;салон;Профсоюзная, 43, -1 этаж
56.754183;60.691794;Платежный терминал, Русфинанс банк, ООО;;Профсоюзная, 43, -1 этаж
56.754183;60.691794;Crout`On;ресторан;Профсоюзная, 43, 1 этаж
56.754183;60.691794;Crout`On;ресторан;Профсоюзная, 43, 1 этаж
56.754196;60.702061;Ателье;ИП Втюрин А.В.;Грибоедова, 20, цокольный этаж
56.754196;60.702061;Мастерская по ремонту обуви и изготовлению ключей;ИП Мугавин Р.Г.;Грибоедова, 20, цокольный этаж
56.754196;60.702061;Электроники;сервисный центр;Грибоедова, 20, цокольный этаж
56.754196;60.702061;Мистер Ландри;сеть салонов бытовых услуг;Грибоедова, 20, цокольный этаж
56.754196;60.702061;Florange & Faberlic;торговая компания;Грибоедова, 20, цокольный этаж
56.754196;60.702061;Florange & Faberlic;торговая компания;Грибоедова, 20, цокольный этаж
56.754221;60.702179;ВУЗ-банк;;Грибоедова, 20
56.754221;60.702179;Банкомат, ВУЗ-банк, АО;;Грибоедова, 20
56.754259;60.708798;Зверюня;зоосалон;Инженерная, 34, 1 этаж
56.754259;60.702366;МТС;сеть салонов связи;Грибоедова, 20
56.754272;60.702805;Суши Wok;сеть суши-баров;Грибоедова, 22, 1 этаж
56.754279;60.702459;Смешные цены;магазин;Грибоедова, 20, цокольный этаж
56.754279;60.702459;Крафтер;магазин;Грибоедова, 20, цокольный этаж
56.75431;60.703792;Telepay;сеть платежных терминалов;Грибоедова, 22, магазин Пив & Ко
56.754351;60.702801;Винни-Пух;детский магазин;Грибоедова, 22, 1 этаж
56.754385;60.61414;Уральский завод пластмасс;торгово-производственная компания;Мартовская, 12
56.754402;60.704279;Светлана;ателье по пошиву и ремонту одежды;Грибоедова, 24, цокольный этаж
56.754402;60.704279;Комиссионный магазин постоянных распродаж;ИП Бугаев А.Н.;Грибоедова, 24, цокольный этаж, вход с ул. Многостаночников переулок
56.754402;60.704279;Сервисный центр;ИП Бугаев А.Н.;Грибоедова, 24, цокольный этаж
56.754402;60.704279;НАШ ЛОМБАРД;;Грибоедова, 24, цокольный этаж
56.754416;60.703719;Стрижка-SHOP;парикмахерская;Грибоедова, 22, 1 этаж
56.754428;60.703718;Красная Орхидея;салон цветов;Грибоедова, 22, 1 этаж
56.754439;60.703234;Магнит-Косметик;сеть магазинов косметики и бытовой химии;Грибоедова, 22, 1 этаж
56.754439;60.703234;Магнит-Косметик;сеть магазинов косметики и бытовой химии;Грибоедова, 22, 1 этаж
56.754451;60.70335;Сова;кофейня;Грибоедова, 22, 1 этаж
56.754459;60.692254;OZON Box;сеть автоматизированных пунктов выдачи;Профсоюзная, 45
56.754459;60.692254;MOBI-AKS;сеть автоматов по продаже аксессуаров к мобильным телефонам;Профсоюзная, 45, 1 этаж
56.754459;60.692254;Qiwi;сеть платежных терминалов;Профсоюзная, 45
56.754459;60.692254;Папа-мама-я;студия семейной красоты;Профсоюзная, 45, 1 этаж
56.754465;60.701242;ГАЛАМАРТ;сеть магазинов постоянных распродаж;Грибоедова, 21, 1 этаж
56.754465;60.701242;МегаФон;сеть платежных терминалов;Грибоедова, 21
56.754465;60.701242;МегаФон;сеть салонов связи;Грибоедова, 21
56.754541;60.701607;Telepay;сеть платежных терминалов;Грибоедова, 21
56.754541;60.701607;Банкомат, Банк ФК Открытие, ПАО;;Грибоедова, 21, супермаркет Кировский
56.754541;60.701607;Банкомат, Сбербанк, ПАО;;Грибоедова, 21, супермаркет Кировский
56.754555;60.703751;Kebab KING;сеть кафе и киосков;Грибоедова, 22 киоск
56.754568;60.584853;Kesora Plus;интернет-магазин;Окружная, 88/2, 2 офис, 1 этаж
56.754643;60.704219;Qiwi;сеть платежных терминалов;Грибоедова, 24, 1 этаж, универсам Магнит
56.754694;60.704432;ДелоБанк;Проект ПАО СКБ-банк;Грибоедова, 24
56.754694;60.704432;СКБ-банк;;Грибоедова, 24, 1 этаж
56.754694;60.704432;Банкомат, СКБ-банк, ПАО;;Грибоедова, 24, 1 этаж
56.754696;60.708732;Сонин сундучок;магазин детских товаров;Инженерная, 34, 1 этаж
56.754696;60.708732;Дивный сон;магазин постельных принадлежностей и женской одежды;Инженерная, 34, 1 этаж
56.754696;60.708732;РозаМаркет;сеть магазинов;Инженерная, 34, 1 этаж
56.754708;60.702549;Первоцвет;аптека низких цен;Грибоедова, 23, 1 этаж
56.754737;60.709813;Артена;агентство интернет-маркетинга;Грибоедова, 32/20, 707, 709 офис, 7 этаж
56.754737;60.709813;ЭНЕРГОПРОМТОРГ;оптово-розничная компания;Грибоедова, 32/20, 617А офис, 6 этаж
56.754737;60.709813;Марафон-Электро;производственная компания;Грибоедова, 32/20, 804 офис, 8 этаж
56.754737;60.709813;Клевер-Принт;торгово-сервисная компания;Грибоедова, 32/20, 411 офис, 4 этаж
56.754737;60.709813;Массажный кабинет;;Грибоедова, 32/20, 1117 офис, 11 этаж
56.754737;60.709813;Ленора;парикмахерская;Грибоедова, 32/20, 1 этаж
56.754737;60.709813;Crazy Bee;студия праздника;Грибоедова, 32/20, 1203, 1210 офис, 12 этаж
56.75475;60.705199;Магазин для всех;ИП Ковалевский С.В.;Грибоедова, 24, цокольный этаж
56.754788;60.702937;Детская библиотека №29 им. А.П. Гайдара;;Грибоедова, 23, 1 этаж
56.754794;60.754516;Столовая №1;;Черняховского, 82, 1 этаж
56.754804;60.704994;Почтовое отделение №10;;Грибоедова, 24, 1 этаж
56.754804;60.704994;Почта Банк;;Грибоедова, 24, 1 этаж
56.754804;60.704994;Банкомат, Почта Банк, ПАО;;Грибоедова, 24, 1 этаж, Почтовое отделение №10
56.754863;60.81903;Почтовое отделение №25;;Бахчиванджи, 17
56.754863;60.81903;Почта Банк;;Бахчиванджи, 17, 1 этаж
56.754872;60.705263;Роспечать;киоск по продаже печатной продукции;Грибоедова, 24 киоск
56.754915;60.705527;ВитаЭкспресс;сеть аптек;Грибоедова, 26, 1 этаж
56.754972;60.81918;Ангел;парикмахерская;Бахчиванджи, 17, 1 этаж
56.754977;60.699939;Подари ребенку радость;агентство детских праздников;Грибоедова, 19а, 1 этаж
56.754984;60.705863;Boxberry;отделение службы доставки;Грибоедова, 26, 1 этаж
56.754984;60.705863;Амулет;сервис-магазин;Грибоедова, 26, 1 этаж
56.754984;60.705863;Прачка96;;Грибоедова, 26, 1 этаж
56.755001;60.700952;Грибоедов;сауна;Грибоедова, 21а
56.755004;60.703315;Медведь;сеть магазинов экопродуктов;Грибоедова, 23
56.755017;60.69885;Живика;сеть аптек;Бородина, 24
56.755032;60.706558;Мастерская по ремонту ноутбуков и телефонов;;Грибоедова, 26, цокольный этаж
56.755049;60.706179;Аптека от склада;сеть аптек;Грибоедова, 26, 1 этаж
56.75505;60.704049;Qiwi;сеть платежных терминалов;Грибоедова, 25
56.755096;60.706608;МАМА, Я ПОЕЛ;бургерная;Грибоедова, 26, 1 этаж
56.755105;60.708077;Парфюм косметик;сеть магазинов;Грибоедова, 28, 1 этаж
56.755105;60.708077;Парфюм косметик;сеть магазинов;Грибоедова, 28, 1 этаж
56.755107;60.706554;Home;магазин домашнего текстиля;Грибоедова, 26, 1 этаж
56.755112;60.704406;На Грибоедовской;трактир;Грибоедова, 25, 1 этаж
56.755112;60.704406;На Грибоедовской;трактир;Грибоедова, 25, 1 этаж
56.755167;60.623601;Telepay;сеть платежных терминалов;Бисертская, 139а, 1 этаж
56.755178;60.704726;Здоровье;сеть аптек;Грибоедова, 25, 1 этаж
56.755189;60.585152;Азимут66.ру;магазин квадроциклов, питбайков и мотобуксировщиков;Окружная, 88ю
56.755194;60.819314;Кафе-шашлычная;;Бахчиванджи, 17а
56.755228;60.818079;Qiwi;сеть платежных терминалов;Бахчиванджи, 26
56.755234;60.815444;Баня;;Спутников, 3а
56.755316;60.70539;Мотив;оператор сотовой связи;Грибоедова, 27
56.755316;60.70539;Telepay;сеть платежных терминалов;Грибоедова, 27
56.755342;60.707564;Одна цена;универсам;Грибоедова, 28, 1 этаж
56.755342;60.707564;Одна цена;универсам;Грибоедова, 28, 1 этаж
56.755343;60.708497;Магазин детской обуви;;Грибоедова, 30, 1 этаж
56.755364;60.707699;Живика;сеть аптек;Грибоедова, 28, 1 этаж
56.755365;60.757532;Дети Урала;детский интернет-магазин;ТЦ МегаДетки, Черняховского, 86/2, 256 бутик, 2 этаж
56.755365;60.757532;Tannins-toys;интернет-магазин;ТЦ МегаДетки, Черняховского, 86/2, 125М бутик, 1 этаж
56.755365;60.757532;Формула здоровья;интернет-магазин;ТЦ МегаДетки, Черняховского, 86/2, 121М,123М офис, 1 этаж
56.755365;60.757532;Моя радость;интернет-магазин детских товаров;ТЦ МегаДетки, Черняховского, 86/2, 254 бутик, 2 этаж
56.755365;60.757532;HappyKids96.ru;интернет-магазин детской одежды;ТЦ МегаДетки, Черняховского, 86/2, 1 этаж
56.755365;60.757532;Маленькая леди Ди;магазин;ТЦ МегаДетки, Черняховского, 86/2, 149М бутик, 1 этаж
56.755365;60.757532;МоРоШКа;магазин;ТЦ МегаДетки, Черняховского, 86/2, 230/267 бутик, 2 этаж
56.755365;60.757532;Babylon;магазин детских товаров;ТЦ МегаДетки, Черняховского, 86/2, М144 бутик, 1 этаж
56.755365;60.757532;Мой малыш;магазин детских товаров;ТЦ МегаДетки, Черняховского, 86/2, 124М бутик, 1 этаж
56.755365;60.757532;Башмачок;магазин детской обуви;ТЦ МегаДетки, Черняховского, 86/2, 109М бутик, 1 этаж
56.755365;60.757532;Ириска;магазин детской обуви;ТЦ МегаДетки, Черняховского, 86/2, М143 бутик, 1 этаж
56.755365;60.757532;Выбражулька;магазин детской одежды;ТЦ МегаДетки, Черняховского, 86/2, 115М бутик, 1 этаж
56.755365;60.757532;Обувной.com;магазин обуви и аксессуаров;ТЦ МегаДетки, Черняховского, 86/2, 155М бутик, 1 этаж
56.755365;60.757532;Покупаем малышу;магазин товаров для новорожденных;ТЦ МегаДетки, Черняховского, 86/2, 152М бутик, 1 этаж
56.755365;60.757532;AB Prima;магазин товаров для новорожденных;ТЦ МегаДетки, Черняховского, 86/2, 285 бутик, 2 этаж
56.755365;60.757532;Трикотаж маркет;оптовая компания;ТЦ МегаДетки, Черняховского, 86/2, 2 этаж
56.755365;60.757532;МЕГАШАПКА;оптовая фирма;ТЦ МегаДетки, Черняховского, 86/2, 280 бутик, 2 этаж
56.755365;60.757532;Рекантино;оптово-розничная компания;ТЦ МегаДетки, Черняховского, 86/2, 114М бутик, 1 этаж
56.755365;60.757532;Индиго Джинс;оптово-розничная компания;ТЦ МегаДетки, Черняховского, 86/2, 128 офис, 1 этаж
56.755365;60.757532;Поиграйка;оптово-розничный магазин игрушек;ТЦ МегаДетки, Черняховского, 86/2, 105М бутик, 1 этаж
56.755365;60.757532;Crockid;оптовый магазин детской одежды;ТЦ МегаДетки, Черняховского, 86/2, 1, 2 этаж
56.755365;60.757532;S class;сеть магазинов;ТЦ МегаДетки, Черняховского, 86/2, 107М бутик, 1 этаж
56.755365;60.757532;Соня и Ко;сеть магазинов детской одежды;ТЦ МегаДетки, Черняховского, 86/2, 118М бутик, 1 этаж
56.755365;60.757532;Кыштымский трикотаж;сеть магазинов одежды;ТЦ МегаДетки, Черняховского, 86/2, 263 бутик, 2 этаж
56.755365;60.757532;Telepay;сеть платежных терминалов;ТЦ МегаДетки, Черняховского, 86/2, 1 этаж
56.755365;60.757532;Telepay;сеть платежных терминалов;ТЦ МегаДетки, Черняховского, 86/2, 1 этаж, напротив компании Рекантино
56.755365;60.757532;МишАня;торговый дом;ТЦ МегаДетки, Черняховского, 86/2, 234 бутик, 2 этаж
56.755365;60.757532;МегаДетки;торговый центр;ТЦ МегаДетки, Черняховского, 86/2
56.755365;60.757532;БАМБИНИ-маркет;;ТЦ МегаДетки, Черняховского, 86/2, 120М бутик, 1 этаж
56.755365;60.757532;Deloras-Ural;;ТЦ МегаДетки, Черняховского, 86/2, 112 бутик, 1 этаж
56.755365;60.757532;Столовая;;ТЦ МегаДетки, Черняховского, 86/2, 2 этаж
56.755389;60.697826;Магазин детских игрушек;ИП Чагина Т.Д.;Бородина, 31
56.755389;60.697826;Магазин косметики и бытовой химии;ИП Чагина Т.Д.;Бородина, 31
56.755389;60.697826;Магазин косметики и бытовой химии;ИП Чагина Т.Д.;Бородина, 31
56.755404;60.705835;Венеция;сеть салонов красоты;Грибоедова, 27, 1 этаж
56.755408;60.816123;Растительная жизнь;магазин товаров для сада;Спутников, 1а, 2 этаж
56.755408;60.816123;Кофейня;;Спутников, 1а, 2 этаж
56.755414;60.698853;Telepay;сеть платежных терминалов;Бородина, 26, 1 этаж, магазин Олес
56.755414;60.698853;ChipSet;торгово-сервисный центр;Бородина, 26, магазин Олес
56.755414;60.698853;Банкомат, Газпромбанк, АО;;Бородина, 26
56.755414;60.698853;Банкомат, Сбербанк, ПАО;;Бородина, 26, 1 этаж, магазин Олес
56.755414;60.698853;Олес;кулинария;Бородина, 26
56.755431;60.698839;Банкомат, СКБ-банк, ПАО;;Бородина, 26
56.755437;60.705975;Ситилаб;медицинский центр;Грибоедова, 27, 1 этаж
56.755438;60.709666;Старый дворик;столовая;Грибоедова, 32, 1 этаж
56.755448;60.706213;Столото;сеть киосков по продаже лотерейных билетов;Грибоедова, 27 киоск
56.75546;60.703519;Гриль-клуб;;Грибоедова, 25
56.755538;60.706231;Элита;парикмахерская;Грибоедова, 27
56.755542;60.698454;Розовый сад;салон цветов;Бородина, 26/1
56.755542;60.698454;Розовый сад;салон цветов;Бородина, 26/1
56.755552;60.697535;Юнимаркет;торговая компания;Бородина, 31, 1 этаж
56.755559;60.704288;Алиса;магазин зоотоваров;Хибиногорский переулок, 4, 1 этаж
56.755559;60.757841;UMKA;оптовая компания;ТЦ МегаДетки, Черняховского, 86/2, 259 павильон, 2 этаж
56.755559;60.757841;Планета Игрушек;оптовая компания;ТЦ МегаДетки, Черняховского, 86/2, 1 этаж
56.755572;60.698649;Банкомат, Уральский банк реконструкции и развития, ПАО;;Бородина, 26, 1 этаж
56.755584;60.570709;Персона;торгово-производственная фирма;Городская, 1а, 32 офис
56.7556;60.706761;Технодисконт;сеть дискаунтеров электроники;Грибоедова, 29, 1 этаж
56.755629;60.704627;Виктория;парикмахерская;Хибиногорский переулок, 4, 2 этаж
56.755646;60.625581;Telepay;сеть платежных терминалов;Бисертская, 130а, 1 этаж
56.755662;60.712408;Qiwi;сеть платежных терминалов;Грибоедова, 34, 1 этаж
56.755687;60.712745;МИЛЕДИ;парикмахерская;Грибоедова, 34, 201 офис, 2 этаж
56.755735;60.709675;Газпромбанк;;Грибоедова, 32, 1 этаж
56.755735;60.709675;Банкомат, Газпромбанк, АО;;Грибоедова, 32
56.755777;60.756529;Формула здоровья;интернет-магазин;ТЦ МегаДетки, Черняховского, 86/2, 1 этаж
56.755777;60.756529;Первый детский;магазин;ТЦ МегаДетки, Черняховского, 86/2, 119М бутик, 1 этаж
56.755777;60.756529;Правильные кроватки;магазин детской и подростковой мебели;ТЦ МегаДетки, Черняховского, 86/2, 2 этаж
56.755777;60.756529;Мини-бар мороженого и коктейлей;;ТЦ МегаДетки, Черняховского, 86/2, 1 этаж, рядом с магазином Miss Polin
56.75578;60.619041;Amore;студия красоты;Молотобойцев, 12, 1 этаж
56.755792;60.614011;Игрушка;торговая компания;Мартовская, 6, 2 этаж
56.755834;60.597193;Банкомат, АКБ Связь-банк, ПАО;;Окружная, 1, 1 этаж
56.755843;60.710199;Медлайн;медицинский центр;Грибоедова, 32, 1 этаж
56.755862;60.712408;Росгосстрах банк;;Грибоедова, 34, 1 этаж
56.755871;60.707568;Диана;салон-парикмахерская;Грибоедова, 29, 1 этаж
56.755879;60.596457;Банкомат, Сбербанк, ПАО;;Окружная, 1, 1 этаж
56.755911;60.698072;OPTIMIZER;студия создания сайтов;Профсоюзная, 26
56.755911;60.698072;ROLLFM;пиццерия;Профсоюзная, 26, цокольный этаж
56.755911;60.698072;Napas-Hookah Bar;центр паровых коктейлей;Профсоюзная, 26, цокольный этаж
56.755928;60.597492;Банкомат, Газпромбанк, АО;;Окружная, 1/2
56.755964;60.697921;ДЛЯ ВАС;магазин;Бородина, 30, 2 этаж
56.755964;60.697921;Бытспектр;мастерская;Профсоюзная, 26, 3 этаж
56.755964;60.763907;Столовая;;Кольцевая автодорога (ЕКАД) 5 км, 6, 1 этаж
56.755974;60.706292;Силуэт;ателье;ТД Ермак, Хибиногорский переулок, 8, 1 этаж
56.755974;60.706292;zooМИР;зоомагазин;ТД Ермак, Хибиногорский переулок, 8, 1 этаж
56.755974;60.706292;СинтеZ;комиссионный магазин;ТД Ермак, Хибиногорский переулок, 8, 2 этаж
56.755974;60.706292;Империя;магазин;ТД Ермак, Хибиногорский переулок, 8, 111 офис, 1 этаж
56.755974;60.706292;Крошка kids;магазин детской одежды;ТД Ермак, Хибиногорский переулок, 8, 9 офис, 2 этаж
56.755974;60.706292;Промка;магазин промышленных товаров;ТД Ермак, Хибиногорский переулок, 8, 1 этаж
56.755974;60.706292;ShopAtelier;магазин-ателье;ТД Ермак, Хибиногорский переулок, 8, 5 офис, 2 этаж
56.755974;60.706292;Faberlic;пункт выдачи заказов;ТД Ермак, Хибиногорский переулок, 8, 17 офис, 2 этаж
56.755974;60.706292;Ермак;торговый дом;ТД Ермак, Хибиногорский переулок, 8
56.755974;60.706292;Авокадо96;интернет-магазин;ТД Ермак, Хибиногорский переулок, 8, 11 офис, 2 этаж
56.755974;60.706292;Нина;парикмахерская;ТД Ермак, Хибиногорский переулок, 8, 12 офис, 2 этаж
56.755974;60.706292;Faberlic;пункт выдачи заказов;ТД Ермак, Хибиногорский переулок, 8, 17 офис, 2 этаж
56.755974;60.706292;Авокадо;кабинет;ТД Ермак, Хибиногорский переулок, 8, 11 офис, 2 этаж
56.756029;60.674389;Глобалдрайв;гипермаркет водно-моторной техники;Щербакова, 220, -1 этаж
56.756061;60.698156;Qiwi;сеть платежных терминалов;Профсоюзная, 26
56.756075;60.819496;Александра;салон-парикмахерская;Бахчиванджи, 9, 1 этаж
56.756081;60.697455;Малышка Ева;магазин детских товаров;Профсоюзная, 55
56.756092;60.62603;ДЛЯ ВАС;магазин;Бисертская, 132, 1 этаж
56.756092;60.62603;Telepay;сеть платежных терминалов;Бисертская, 132, 1 этаж
56.75611;60.712398;BingoBoom;букмекерская контора;Грибоедова, 34а, 1 этаж
56.756131;60.69837;Мастерская по ремонту электробензоинструмента;ИП Музафаров П.К.;Профсоюзная, 26, 3 этаж, 1 подъезд
56.756131;60.69837;Парикмахерская;;Профсоюзная, 26, 16 офис, 3 этаж, 1 подъезд
56.756131;60.69837;Magolia;студия загара;Бородина, 30, 3 этаж, 1 подъезд
56.756142;60.758678;WEIDO;оптовая компания;ТЦ МегаДетки, Черняховского, 86/2, 279 офис
56.756142;60.758678;Нордтекс;торгово-производственная компания;ТЦ МегаДетки, Черняховского, 86/2, 277 бутик, 2 этаж
56.75615;60.614657;Швейный цех;ИП Андрющенко М.В.;Мартовская, 6, 302 офис, 3 этаж
56.75615;60.614657;Манго;торговая компания;Мартовская, 6, 33 офис, 3 этаж
56.75615;60.614657;Триада Тех Трейд;торговая компания;Мартовская, 6, 302 офис, 3 этаж
56.756349;60.597698;Гвин;столовая;Окружная, 1/3, 1 этаж
56.75638;60.60965;Платежный терминал;ИП Казанцева Е.С.;Селькоровская, 76/1
56.756396;60.698311;Огненная фантазия;театр огня;Профсоюзная, 59, 1 подъезд
56.756397;60.614061;Связьвид;телекоммуникационная компания;Мартовская, 6, 3 этаж
56.756459;60.606043;Платежный терминал, Сбербанк, ПАО;;Окружная, 8, 1 этаж
56.756459;60.606043;Сбербанк;;Окружная, 8
56.756459;60.606043;Банкомат, Сбербанк, ПАО;;Окружная, 8
56.756463;60.605998;Почтовое отделение №620103;;Окружная, 8
56.756463;60.605998;Почта Банк;;Окружная, 8, 1 этаж
56.756536;60.605294;Выездная ветеринарная служба;ИП Васильев А.В.;Окружная, 8
56.756601;60.697529;Ветдоктор;ветеринарная клиника;Профсоюзная, 55, 1 этаж
56.756608;60.712399;Банкомат, Газпромбанк, АО;;Хибиногорский переулок, 33а, 1 этаж
56.756612;60.812261;Telepay;сеть платежных терминалов;Спутников, 8/1
56.756622;60.590427;Кафе домашней кухни;ИП Вандышев А.В.;Окружная, 5/1, 1 этаж
56.756639;60.754299;Май бэби;магазин детских товаров;Черняховского, 86/6, 3 этаж
56.756639;60.754299;Зингер Плюс;оптово-розничная компания;Черняховского, 86/6, 2 этаж
56.756653;60.712398;Музей истории Уралхиммаш;;Хибиногорский переулок, 33а, 1 этаж
56.756656;60.698968;Парикмахерская;;Профсоюзная, 63, 1 этаж
56.756662;60.75635;МегаДетки;детский торговый центр;ТЦ Мега Детки, Черняховского, 86/1
56.756662;60.75635;Китёнок;интернет-магазин;ТЦ Мега Детки, Черняховского, 86/1, 129 бутик, 1 этаж
56.756662;60.75635;Bebecom.ru;интернет-магазин детских товаров;ТЦ Мега Детки, Черняховского, 86/1, 279 бутик, 2 этаж
