latitude;longitude;Название;Описание;Адрес
56.84641;60.653625;Campus Coffee;кофейня;Первомайская, 98, 1 этаж
56.843035;60.610485;Joy Soul;место комфортной еды;Карла Либкнехта, 40, 1 этаж
56.904235;59.949544;Провинция;кофейня;Ильича проспект, 12а
56.83009;60.564287;Haze tea & coffee shop;кофейня;Крауля, 8
56.827796;60.616412;Венское;кафе;Гостиница Атриум Палас Отель, Куйбышева, 44, 1 этаж
56.833148;60.589977;Окна на Юг;пекарня;Малышева, 19, 1 этаж
56.841809;60.620209;Булочная-кондитерская;;Ленина проспект, 69/3
56.830192;60.592436;Кондитория;кондитерская-школа;Хохрякова, 48, 1 этаж
56.833755;60.591893;Engels кофе+вафли;кафе;Малышева, 21/4
56.835999;60.596131;Surf Coffee;кофейня;Театральный переулок, 5а, 1 этаж
56.83929;60.614765;Simple Coffee;кофейня;Ленина проспект, 46, 1 этаж
56.826795;60.616662;DUO;кофейня;Центр Международной Торговли, Куйбышева, 44д, 1 этаж
56.833815;60.601001;Люблю Кофе;кофейня;Малышева, 44, 1 этаж
56.823845;60.605354;Sky18;кофейня;8 Марта, 51, 18 этаж
56.840292;60.608751;Maria;кондитерская;Толмачёва, 21, 1 этаж
56.83155;60.613677;Muru;кофейня;Розы Люксембург, 27, 1 этаж
56.821857;60.604451;Бисквитный двор;сеть кондитерских пекарен;8 Марта, 70, 1 этаж
56.837037;60.582533;Мята;кафе-бар;БЦ Самолёт, Ленина проспект, 5л, 1 этаж
56.846005;60.650156;Brodsky Coffee;кофейня;Мира, 15, 1 этаж
56.831858;60.589696;BEZMUKI;кондитерская легких десертов;Сакко и Ванцетти, 64, 1 этаж
56.835353;60.599282;#Trava;кофейня;ТЦ Мытный Двор, 8 Марта, 8д, 1 этаж
56.827327;60.601926;Не торты, а торты;кофейня-кондитерская;Куйбышева, 57, 1 этаж
56.835828;60.621579;Поль Бейкери;сеть кафе-пекарен;Луначарского, 180, 1 этаж
56.838059;60.609629;Papa Carlo Coffee;кофейня;Толмачёва, 17, 1 этаж
56.833572;60.6019;Tesla Coffee;кофейня;Чернышевского, 1, 1 этаж
56.828327;60.599564;Starbucks;кофейня;ТРЦ Гринвич, 8 Марта, 46, 1 этаж
56.840074;60.611482;Tutto Caffe`;;Карла Либкнехта, 22/1
56.831364;60.588594;ЗАРАТОРТ;кафе-кондитерская;Центральный рынок переулок, 6, 1 этаж
56.835073;60.61267;Шоко;французская кофейня;Отель Центральный, Малышева, 74, 1 этаж
56.835297;60.590481;Верде;кофейня;Сакко и Ванцетти, 47
56.835552;60.599216;Французский Пекарь;сеть кофеен-пекарен;ТЦ Мытный Двор, 8 Марта, 8д, 1 этаж
56.841292;60.616965;Sokol coffee;кофейня;Мамина-Сибиряка, 70, 1 этаж
56.835972;60.609563;Хачапури для Пушкина;кафе-пекарня;Пушкина, 4, 1 этаж
56.84486;60.589853;Bow Jones cafe;;Бориса Ельцина, 3/2, 30 этаж
56.844614;60.615344;Getgoodcake;кофейня;Мамина-Сибиряка, 54, 1 этаж
56.826434;60.591675;Pulse;кофейня;Куйбышева, 21, 1 этаж
56.824668;60.604705;Wafbusters;вафельная;8 Марта, 49, 1 этаж
56.829273;60.611781;Большая Медведица;кофейня;Гоголя, 57, 1 этаж
56.834921;60.609116;Шоколадница;сеть кофеен;Малышева, 60, 1 этаж
56.826057;60.624746;Вереск;домашняя кофейня;Луначарского, 214, 1 этаж
56.831406;60.616207;FatCat;кофейня;Белинского, 41, 1 этаж
56.836613;60.606595;Espresso Season;кофейня;Пушкина, 9 дом, 1 этаж
56.833155;60.614394;Молоко Кофе Сахар;кофейня;Белинского, 30, 2 этаж
56.832507;60.58454;HOLY;мейд-кафе;Малышева, 7, 1 этаж
56.836036;60.596504;Street Market Food & Buffet;кафе-магазин;Театральный переулок, 5а, 1 этаж
56.84511;60.6181;Диалоги;кофейня;Луначарского, 80, 1 этаж
56.904333;60.599895;Сытый кролик;кофейня;Восстания, 50/3
56.816895;60.610378;Бенуа;кафе-чайная;Степана Разина, 39, 1 этаж
56.9724;60.576966;FIESTA;центр развлечений;Дворец спорта УГМК, Орджоникидзе, 15
56.832011;60.597304;Вау! Вафли;кафе;Вайнера, 15, 1 этаж
56.838633;60.594599;La Rose;магазин-кондитерская;Торговый деловой центр Европа, Ленина проспект, 25, 1 этаж
56.822382;60.638463;Кристина;кондитерский дом;Восточная, 180, 1 этаж
56.839921;60.608962;Скворечник;кофейня;Толмачёва, 21, 1 этаж
56.785856;60.520632;Кокос и Ананас;кафе-кондитерская;Павла Шаманова, 7, 1 этаж
56.847492;60.60128;CoffeeUP;кофейня;Красный переулок, 14
56.842046;60.646167;9 островов;компания по изготовлению тортов на заказ;Гагарина, 33, 1 этаж
56.839674;60.609501;Капкейня;;Толмачёва, 16
56.823362;60.605114;Кусочек счастья;кафе-кондитерская;8 Марта, 51, 1 этаж
56.837465;60.609083;WORKS COFFEE;;Пушкина, 14
56.830701;60.614667;Evia;кофейня;Карла Маркса, 20а, 1 этаж
56.807692;60.605506;Дом выпечки;сеть кафе-пекарен;Щорса, 103, цокольный этаж
56.832837;60.612104;Black Water;кофейня;БЦ ГринПАРК, Розы Люксембург, 22, 1 этаж
56.820759;60.631198;Кухня у Истоминых;;Большакова, 20
56.821355;60.612181;Хлеб как хлеб;пекарня;Чапаева, 7, 1 этаж
56.790183;60.484917;МЕСТО;уютное кафе;Евгения Савкова, 31, 1 этаж
56.835991;60.614245;Жизнь;кафе-бар;БЦ Высоцкий, Малышева, 51, 4 этаж
56.884468;60.577071;ТАРДИС;кофейня;Машиностроителей, 45
56.845533;60.560474;Просто Кофе;кофейня;Бебеля, 15а
56.83664;60.623309;Coffee Project;кофейня;ТЦ Crystals, Малышева, 71, 2 этаж, универмаг BOLSHOY
56.860242;60.631769;Фамилия;семейная пекарня;Учителей, 5, 1 этаж
56.82181;60.604921;Coffee Like;сеть кофе-баров;8 Марта, 70в
56.84096;60.614391;На Балконе;кафе-бар;Тургенева, 3, 1 этаж
56.856733;60.631433;9 ОСТРОВОВ;кондитерская торговая сеть;Уральская, 60
56.831546;60.602225;Coffee Roast;кофейня-магазин;Чернышевского, 16, 1 этаж
56.830382;60.599935;CoffeеMakers;экспресс-кофейня;ТРЦ Гринвич, 8 Марта, 46, 2 этаж, 2 уровень
56.897555;60.613657;Twin cup;кофейня;Космонавтов проспект, 31а, 2 этаж
56.827659;60.601818;Melange;кафе;8 Марта, 50, 1 этаж
56.817743;60.609476;Европейская пекарня;сеть кафе-пекарен;Степана Разина, 28, 1 этаж
56.837853;60.601409;Coffee Box;;Ленина проспект, 28, 1 этаж
56.795191;60.49392;СЫТОешка;;Евгения Савкова, 5, 1 этаж
56.834237;60.584797;BoomDonuts;кофейня;Попова, 25, 1 этаж
56.841748;60.636742;Ароматная чашка;кофейня;Ленина проспект, 60, 1 этаж
56.832768;60.590128;Хлебное место;кофейня-пекарня;Сакко и Ванцетти, 61, 1 этаж
56.834103;60.598201;Coffee Box;кофе-бар;Малышева, 31в, 1 этаж
56.837119;60.621964;MOST coffee;кофейня;Луначарского, 137, 1 этаж
56.830116;60.595623;Not Fake! Coffee & Tea;;Радищева, 21
56.828377;60.599475;Coffeeshop Company;венская кофейня;ТРЦ Гринвич, 8 Марта, 46, 0 этаж, напротив гипермаркета Гипербола
56.836774;60.627834;Coffee Flower;эспрессо-бар;Бажова, 127, 1 этаж
56.778341;60.549092;Newton Coffe;кофейня;Краснолесья, 10, 1 этаж
56.796233;60.514806;Ли-Ли;кафе-пекарня;Краснолесья, 161, 1 этаж
56.839489;60.5945;Gud Men;мини-кофейня;Вайнера, 1, 1 этаж
56.840211;60.624441;КОММУНА;кофейня;Ленина проспект, 52/2, 1 этаж, мини-гостиница DoBeDo
56.915699;60.822784;Луч;кофейня;Гагарина, 21
56.849613;60.596361;Печчини;кофейня-пекарня;Красный переулок, 4, 1 этаж
56.831557;60.567197;21cups;кофейня;Мельникова, 38, 1 этаж, слева от кафе ПерекусCity
56.754451;60.70335;Сова;кофейня;Грибоедова, 22, 1 этаж
56.832626;60.582624;Black & White;кофейня;ТРЦ Алатырь, Малышева, 5, -1 этаж
56.913375;60.823807;КОФЕМОЛКА;кофейня;Яблоко, Гагарина, 22, цокольный этаж
56.830555;60.610718;Coffee me;кофейня;БЦ Капитал, Гоголя, 36, 1 этаж
56.816729;60.632558;Герои кофе;кофейня;Ткачей, 21, 1 этаж
56.835885;60.582472;Настоящая пекарня;;Ленина проспект, 2
56.789221;60.51841;Добрый Хлеб;пекарня;Вильгельма де Геннина, 43, 1 этаж
56.82693;60.590799;Лаборатория кофе;кофейня;Сакко и Ванцетти, 102, 1 этаж
56.835991;60.614245;CoffeeBook;кофейня;БЦ Высоцкий, Малышева, 51, 1 этаж
56.827953;60.594246;Проворный бариста;экспресс-кофейня;Хохрякова, 72, 1 этаж
56.842046;60.646167;9 островов;кондитерская-школа;Гагарина, 33
56.854462;60.614862;Cofferia;кофейня;Луначарского, 22, 1 этаж
56.980844;60.561376;Coffesto;кофейня;Юбилейная, 10, 1 этаж
56.812177;60.609082;Чайный домик;интернет-магазин;8 Марта, 121
56.847948;60.615283;Полиарти;арт-кондитерская;Мамина-Сибиряка, 73, 1 этаж
56.844963;60.619206;Atelier Chocolate;шоколадное ателье;Луначарского, 91/1
56.800665;60.593681;Барен-Баден;кофейня;Московская, 198, 1 этаж
56.842658;60.615098;AviCoffee;мини-кофейня;БЦ Вознесенский, Первомайская, 15, 1 этаж
56.833444;60.569524;#Кофебулки;мини-кофейня;Мельникова, 27
56.810439;60.625433;COFFEE & CHOCOLATE;кофейня;Щорса, 38/1, 1 этаж
56.836818;60.655116;Bow Jones Coffee;сеть мини-кофеен;Коминтерна, 16, 1 этаж
56.833727;60.598066;HOME. Coffee & Shop;кофейня;Малышева, 38Б, 1 этаж
56.84252;60.619893;Сэр Вишня;кофейня;Ленина проспект, 69/5, 1 этаж
56.80591;60.559674;Друзья;кофейня;Ясная, 37
56.831459;60.595845;Starbucks;;Вайнера, 40, 6 этаж
56.838071;60.609992;SPITFIRE Coffee;мини-кофейня;Кинотеатр Салют, Толмачёва, 12, 1 этаж
56.838012;60.590319;НОРА;кофейня;Маршала Жукова, 3, правое крыло
56.843264;60.614798;Кофе. Вафли. Блюз.;кофейня;Тургенева, 22, 1 этаж
56.908786;60.600326;Coffee Butterfly;кофейня;Новаторов, 8в, 7 офис
56.849179;60.657107;You up coffee;кофейня;Комсомольская, 25
56.898806;59.947856;Cafe;кофейня;Папанинцев, 5, 1 этаж
56.84265;60.644778;Cup-cup Coffee;мини-кофейня;Ленина проспект, 70, 1 этаж
56.839448;60.597915;Торговый кооперативъ;магазин-кофейня;8 Марта, 4, 1 этаж
56.837742;60.611623;Булка Project;кофейня-кондитерская;Карла Либкнехта, 9/1
56.837033;60.626454;Coffee & Book;кофейня;Малышева, 79, 1 этаж
56.828246;60.593207;RUSYA & LUSYA;пекарня;Хохрякова, 72, 1 этаж
56.831981;60.545481;Лакомка;кафе-кондитерская;Викулова, 37/1, 1 этаж
56.827653;60.597589;Rockets;кофейня;Вайнера, 66а, 1 этаж
56.779022;60.54777;Coffee Punch;кофейня;ТЦ Краснолесье, Краснолесья, 12а, 2 этаж
56.825755;60.600947;Ля Риш;кафе-кондитерская;Университетский переулок, 3, 1 этаж
56.841134;60.611666;Коффис;кофе-бар;Карла Либкнехта, 22, 1 этаж
56.77933;60.703393;My family;семейное кафе;Светлый микрорайон, 5, 1 этаж
56.832506;60.609275;Deffrane;шоколадный бутик;Энгельса, 4, 1 этаж
56.828967;60.600526;The Red Bus Cafe;кофейня;ТРЦ Гринвич, 8 Марта, 46, 1 этаж
56.851917;60.640736;Coffee Time;мини-кофейня;ТЦ Аида, Блюхера, 39, 1 этаж
56.842213;60.579647;COFFEE & SNACK;кофейня;Северный переулок, 2а, 1 этаж
56.843356;60.627824;Breadбери;кафе-кондитерская;Мичурина, 56, 1 этаж
56.84486;60.589853;Спутник;кофейня;Бориса Ельцина, 3/2, 1 этаж
56.84256;60.612878;Кофе Бранч на Первомайской;кофейня;Первомайская, 11в, 1 этаж
56.839864;60.594044;Добрый кот;мини-кофейня;Антона Валека, 12, 1 этаж
56.907315;59.944524;FLAT coffee;кофейня;Ватутина, 46, 1 этаж
56.830009;60.600588;Viking coffee;кофейня;8 Марта, 32а, 1 этаж
56.744284;60.567457;Бахус;магазин;Лучистая, 4, 7 подъезд
56.835948;60.583447;WoW Coffee;кофейня;Ленина проспект, 2
56.84159;60.6051;АльКофино;кофейня;Первомайская, 1 киоск
56.840722;60.634319;Географ;кофейня;Чебышева, 6, 1 этаж
56.856289;60.598804;ТЕПЛО;кофейня;ТЦ Свердловск, Героев России, 2, 1 этаж
56.835849;60.599;McCafe;сеть кофеен;8 Марта, 8в, 1 этаж, ресторан Макдоналдс
56.795449;60.516241;CoffeeStreet;кофейня;Краснолесья, 149
56.835253;60.691451;Coffeeko;кофейня;Сыромолотова, 31
56.832017;60.596569;Tasty cup;кофейня;Вайнера, 15а, 1 этаж
56.853098;60.549591;Зарядка;кофейня;ТРЦ Карнавал, Халтурина, 55, около магазина kari
56.823702;60.650602;Gold Cup;кофейня;ТЦ Гагарин, Сибирский тракт, 8н, 1 этаж
56.832763;60.582425;Coffee Annan;кафе;ТРЦ Алатырь, Малышева, 5, 2 этаж
56.981357;60.562802;Gekkon Coffee;кофейня;Кривоусова, 38, 1 этаж
56.848849;60.563926;Hasa Vee;кондитерская;Опалихинская, 15, 3 этаж
56.793136;60.51962;MSD BoomDonuts;магазин;ТРЦ Академический, Краснолесья, 133, 1 этаж
56.848393;60.6094;Какао-Какао;кофейня;Свердлова, 4, 1 этаж
56.811284;60.608716;Цоколь;мини-кофейня;8 Марта, 130, цокольный этаж
56.844191;60.626269;Wake Cup;мини-кофейня;Бажова, 75а, супермаркет Елисей
56.839453;60.610605;ЕКБ;мини-кофейня;Кинотеатр Колизей, Ленина проспект, 43, 1 этаж
56.912269;60.617973;Бодрый день;кофейня;Гипермаркет Castorama, Шефская, 107, 1 этаж
56.858405;60.604536;Добрый пекарь;кафе-пекарня;Екатеринбург-Пассажирский, Вокзальная, 22, 1 этаж
56.701953;60.085752;FUDJI;кафе-бар семейного типа;Калинина, 26
56.782829;60.664823;tigercoffee;;Рощинская, 21 к2, 1 этаж
56.79912;59.911992;Кофе Молл;кофейня;Чайковского, 31, 1 этаж
56.821281;60.576172;Ноты кофе;кофейня;БЦ Партнёр, Пальмиро Тольятти, 32, 1 этаж
56.824224;60.568494;Вкусно маркет;точка кофе;Посадская, 21, 1 этаж
56.913931;59.941748;Море и кофе;кофейня;Ленина, 25а, 1 этаж
56.822021;60.650793;Prime-Time;кофейня;Сибирский тракт, 12 ст1, 1 этаж
56.897577;60.602368;Фамильная пекарня;;Стахановская, 34
56.842229;60.613919;?MAYBE CUP;кофейня;Тургенева, 15, 1 этаж
56.857114;60.607867;Брависсимо;кофейня;Челюскинцев, 29, 1 этаж
56.908961;60.803699;Кофе Консоли Маркет;кофейня;Исакова, 18а, цокольный этаж
56.829675;60.585798;#КофеНаПервом;кофейня;БЦ Парус, Радищева, 28, 1 этаж
56.831459;60.595845;Кофе и точка;;Вайнера, 40, 1 этаж
56.836902;60.59184;FEELING art & coffee;кафе;Ленина проспект, 22, 1 этаж
56.835482;60.610634;Daily Coffee;кофейня;Малышева, 41, 1 этаж
56.839916;60.621407;Provocator coffee;кофейня;ТЦ СИТИ-ЦЕНТР, Ленина проспект, 50, 1 этаж
56.833214;60.582221;Statsura;мини-кофейня;ТРЦ Алатырь, Малышева, 5, 4 этаж
56.897992;59.953582;Счастье в кофе и вафлях;кофейня;ТЦ Галактика, Трубников, 52а
56.812396;60.621675;COFFE & FIT BAR;кофейня;Белинского, 152 к1, 1 этаж
56.847255;60.622861;Татьянин день;кофейня;Бажова, 68
56.824705;60.510304;Ваша кофейня;;Metro, Металлургов, 85, 1 этаж
56.806393;60.615253;С Душой;кофейня;Степана Разина, 95, 1 этаж
56.824453;60.647654;Tasty Choice;экспресс-бар;Сибирский тракт, 8д, 1 этаж
56.837733;60.547274;Сoffeeйка;точка кофе с собой;Татищева, 88, 1 офис, 1 этаж
56.828651;60.516758;Бариста;кафе;Металлургов, 74
56.856289;60.598804;Coffee-troffei;кофейня;ТЦ Свердловск, Героев России, 2, 3 этаж
56.850554;60.661714;Галерея11;кофейня;МЦ  Галерея 11, Студенческая, 11, 1 этаж
56.884606;60.585667;CoffeeCat;кофейня;Машиностроителей, 29, 1 этаж
56.843294;60.610398;Кофе-круассан;магазин-кофейня;Карла Либкнехта, 40, 1 этаж
56.816399;60.599413;VibeCoffee;кофейня;Большакова, 107
56.857762;60.656369;NZCafe;;Студенческая, 4
56.794365;59.905493;Кофе-он мой;кофейня;Максима Горького, 41
56.838898;60.598977;ЧК;кофейня;8 Марта, 7, цокольный этаж
56.830857;60.599534;Пенка;кофейня;Радищева, 4, 310 офис, 3 этаж
56.819089;60.570829;Сеть магазинов чая, кофе и других колониальных товаров;;ТЦ Универбыт, Посадская, 28а, 1 этаж
56.840117;60.584692;ФОРМУЛА КОФЕ;;Шейнкмана, 19, 1 этаж
56.907983;60.80878;Кофейня;;Восточная, 9
56.842671;60.697243;Кофейник;бар;Владимира Высоцкого, 50, 1 этаж
56.825049;60.585356;АмНям;кофейня;БЦ Рифей, Московская, 54, 1 этаж
56.816347;60.539215;Coffee & Cake;кофейня;Радуга Парк, Репина, 94, 1 этаж
56.815675;60.623889;Галстук;кофейня;Цвиллинга, 4, 1 этаж
56.809502;60.621682;Telescope;кофейня;ТЦ Golden Park, Щорса, 29 Голден Парк, 1 этаж
56.858396;60.604045;#МолиВари;кофейня;Екатеринбург-Пассажирский, Вокзальная, 22, 5 зал, 2 этаж
56.802014;60.598643;Пилот;кофейня;Айвазовского, 53, 1 этаж
56.793409;60.52024;CafeoLe;кофейня;ТРЦ Академический, Краснолесья, 133, 1 этаж
56.814649;60.640038;TUTTO CAFFE`;кофейня;Мичурина, 230/2 киоск
56.834097;60.644845;Астон;кофейня;БЦ Aston, Вишнёвая, 35, 1 этаж
56.824841;60.606775;Pit Stop;экспресс-кофейня;Степана Разина, 2, 1 этаж
56.830857;60.599534;CoffeMix;кофейня;Радищева, 4, 3 этаж, буфет Привет Буфет
56.858396;60.604045;Кафе Мамиди;кофейня;Екатеринбург-Пассажирский, Вокзальная, 22
56.80725;60.612089;Coffee Point;кофейня;ТРЦ Мегаполис, 8 Марта, 149, 4 этаж
56.842887;60.664361;Новый Буфет;;Малышева, 145 лит А, 1 этаж
56.797862;60.765105;Coffee & Cakes;кофейня;Латвийская, 54
56.843125;60.642969;Кофе и молоко;;Ленина проспект, 99, 1 этаж
56.797173;60.627247;Мелберес кофе;кофейня;ТЦ Дирижабль, Академика Шварца, 17, 2 этаж
56.856779;60.604816;Steam Coffee;кофе-бар;Челюскинцев, 25/2
56.81203;60.547283;Great Coffee;кoфейня;БЦ Премиум, Серафимы Дерябиной, 24, 1 этаж
56.885436;60.588422;Urals Coffee;мини-кофейня;Машиностроителей, 19, 1 этаж
56.798599;59.906337;MOMENTS;кофейня;Мира, 16, 1 этаж
56.914252;59.930688;Чайкоffский;магазин чая и кофе;Ленина, 41, гипермаркет Мегамарт
56.834887;60.609975;Студия64;интернет-кафе;Малышева, 64, 1 этаж
56.808058;60.611572;Пани Булочка;кафе;Автовокзал Южный, 8 Марта, 145, 1 этаж
56.905238;59.953798;Чайная лавочка;магазин;Ильича проспект, 29а, 1 этаж
56.913785;60.612067;Кофемолка;мини-кофейня;Космонавтов проспект, 104, 1 этаж
56.85572;60.602913;СП;кофейня;ДКЖ, Челюскинцев, 102, 2 этаж, левое крыло
56.839477;60.621054;FullCupCoffee;кофе-бар;ТЦ СИТИ-ЦЕНТР, Ленина проспект, 50, 1 этаж
56.744311;60.612577;Европейская булочная-пекарня;;Бисертская, 23/1
56.900136;60.609028;Sweet Coffee;точка кофе с собой;Восстания, 9
56.972621;60.575288;Coffeelatte;кофейня;Дворец спорта УГМК, Орджоникидзе, 15, 1 этаж
56.824262;60.505789;Engels кофе+вафли;кафе;МеГа, Металлургов, 87, 1 этаж
56.823362;60.605114;Simple Coffee;кофейня;8 Марта, 51, 1 этаж
56.797615;60.636021;Бисквитный двор;сеть кондитерских пекарен;Белинского, 177
56.840667;60.611841;Не торты, а торты;кофейня-кондитерская;Карла Либкнехта, 22, 1 этаж
56.843327;60.644757;Поль Бейкери;сеть кафе-пекарен;Ленина проспект, 101, 1 этаж
56.844542;60.591715;Papa Carlo Coffee;кофейня;Президентский Центр, Бориса Ельцина, 3а, 1 этаж
56.836537;60.595629;Starbucks;кофейня;Универмаг Пассаж, Вайнера, 9, 0 этаж
56.817142;60.631954;Французский Пекарь;сеть кофеен-пекарен;БЦ Clever Park, Ткачей, 23, 1 этаж
56.831471;60.598696;Bow Jones cafe;;Офисный дом Суворов, Радищева, 6а, 1 этаж
56.816267;60.53906;Wafbusters;вафельная;Радуга Парк, Репина, 94, 1 этаж
56.846575;60.655092;Большая Медведица;кофейня;Первомайская, 104, 1 этаж
56.832258;60.596485;Шоколадница;сеть кофеен;Вайнера, 15а, 1 этаж
56.842847;60.640014;Молоко Кофе Сахар;кофейня;Ленина проспект, 95, 1 этаж
56.839386;60.609853;Street Market Food & Buffet;кафе-магазин;Ленина проспект, 41, 1 этаж
56.830254;60.637567;Кристина;кондитерский дом;Шарташский рынок, Восточная, 15а, 1 этаж
56.827765;60.617001;CoffeeUP;кофейня;Куйбышева, 46а
56.846658;60.618264;Дом выпечки;сеть кафе-пекарен;Луначарского, 87, 1 этаж
56.836494;60.58775;Simple Coffee;кофейня;Ленина проспект, 10
56.881908;60.632182;Жизнь;кафе-бар;О`КЕЙ, Бабушкина, 2а, 2 этаж
56.834448;60.611997;Coffee Like;сеть кофе-баров;Розы Люксембург, 14/1
56.790101;60.52612;9 ОСТРОВОВ;кондитерская торговая сеть;Краснолесья, 109
56.841536;60.608406;Coffee Roast;кофейня-магазин;Толмачёва, 25, 1 этаж
56.85601;60.6053;Не торты, а торты;кофейня-кондитерская;Гостиница Маринс Парк Отель, Челюскинцев, 106, 1 этаж
56.839904;60.610867;Поль Бейкери;сеть кафе-пекарен;УрГАХУ, Карла Либкнехта, 23, 1 этаж
56.83103;60.618721;Европейская пекарня;сеть кафе-пекарен;Красноармейская, 41, 1 этаж
56.836015;60.613696;Papa Carlo Coffee;кофейня;Малышева, 47а, 1 этаж, компания Брусника
56.823792;60.505825;Starbucks;кофейня;МеГа, Металлургов, 87, 1 этаж
56.833043;60.588995;Французский Пекарь;сеть кофеен-пекарен;Малышева, 17а, 1 этаж
56.750464;60.801147;Coffeeshop Company;венская кофейня;Аэропорт Кольцово, Бахчиванджи площадь, 1, терминал А, 1 этаж
56.789289;60.527921;Ли-Ли;кафе-пекарня;Краснолесья, 95, 1 этаж
56.823242;60.620707;Большая Медведица;кофейня;Красноармейская, 92а, 2 этаж
56.828859;60.600844;Шоколадница;сеть кофеен;ТРЦ Гринвич, 8 Марта, 46, 3 этаж
56.750109;60.799759;Black & White;кофейня;Аэропорт Кольцово, Бахчиванджи площадь, 1, терминал А, 1 этаж
56.838618;60.608826;Coffee me;кофейня;Ленина проспект, 36
56.753964;60.704415;Герои кофе;кофейня;Многостаночников переулок, 16, 1 этаж
56.829916;60.598566;Street Market Food & Buffet;кафе-магазин;ТРЦ Гринвич, 8 Марта, 46, 1 этаж
56.836465;60.582228;Лаборатория кофе;кофейня;Ленина проспект, 5, 1 этаж
56.84154;60.605058;CoffeeUP;кофейня;Первомайская, 2 киоск
56.786215;60.605134;AviCoffee;мини-кофейня;Астор, 8 Марта, 212, 119 офис, 1 этаж, 3 подъезд
56.821083;60.608201;#Кофебулки;мини-кофейня;Степана Разина, 16, 1 этаж
56.848126;60.661966;COFFEE & CHOCOLATE;кофейня;Студенческая, 36/1
56.838858;60.610953;Bow Jones Coffee;сеть мини-кофеен;Ленина проспект, 38а, 1 этаж
56.804168;60.575281;Дом выпечки;сеть кафе-пекарен;Волгоградская, 47а
56.840216;60.636212;Жизнь;кафе-бар;Генеральская, 3, 1 этаж
56.980684;60.559686;9 ОСТРОВОВ;кондитерская торговая сеть;Юбилейная, 9, 1 этаж
56.829553;60.60919;Coffee Roast;кофейня-магазин;Горького, 65, 1 этаж, 5 подъезд
56.852978;60.654715;Лакомка;кафе-кондитерская;Комсомольская, 10
56.839485;60.618194;Европейская пекарня;сеть кафе-пекарен;Ленина проспект, 48, 1 этаж
56.826825;60.59451;Coffee Time;мини-кофейня;Хохрякова, 74, 1 этаж
56.849404;60.627995;Добрый кот;мини-кофейня;Советская, 6а, 1 этаж
56.914252;59.930688;FLAT coffee;кофейня;Ленина, 41, магазин Чайкоffский
56.830595;60.610705;Ли-Ли;кафе-пекарня;БЦ Капитал, Гоголя, 36, 1 этаж
56.84151;60.635048;Географ;кофейня;Ленина проспект, 60а
56.856207;60.606816;McCafe;сеть кофеен;Гостиница Маринс Парк Отель, Челюскинцев, 106, 1 этаж, ресторан Макдоналдс
56.832216;60.587879;CoffeeStreet;кофейня;БЦ AURORA, Шейнкмана, 55, 1 этаж
56.844476;60.616656;Black & White;кофейня;БЦ Манхэттен, Мамина-Сибиряка, 101, 1 этаж
56.832904;60.582367;Coffee Annan;кафе;ТРЦ Алатырь, Малышева, 5, 2 этаж
56.836539;60.622408;Simple Coffee;кофейня;Луначарского, 139, 1 этаж
56.901203;60.58877;Wake Cup;мини-кофейня;Победы, 63, 1 этаж
56.912872;60.614565;Бодрый день;кофейня;Metro, Космонавтов проспект, 102а
56.901702;59.941519;Кофе Молл;кофейня;Ватутина, 33, 1 этаж
56.817043;60.632323;Не торты, а торты;кофейня-кондитерская;Ткачей, 21
56.83664;60.623309;COFFEE & CHOCOLATE;кофейня;ТЦ Crystals, Малышева, 71, 2 этаж, универмаг BOLSHOY
56.835991;60.614245;Bow Jones Coffee;сеть мини-кофеен;БЦ Высоцкий, Малышева, 51, 4 этаж
56.819332;60.651669;Prime-Time;кофейня;Сибирский тракт, 12 ст7, 1 этаж
56.835214;60.595581;Поль Бейкери;сеть кафе-пекарен;Вайнера, 9а, 1 этаж
56.841272;60.626787;Французский Пекарь;сеть кофеен-пекарен;Ленина проспект, 75, 1 этаж
56.816862;60.562976;Лакомка;кафе-кондитерская;ТЦ GoodMart, Белореченская, 28, 1 этаж
56.750473;60.801364;Шоколадница;сеть кофеен;Аэропорт Кольцово, Бахчиванджи площадь, 1, терминал А, 2 этаж
56.979877;60.548748;CoffeeCat;кофейня;Успенский проспект, 125, 212 офис, 2 этаж
56.829341;60.598935;Street Market Food & Buffet;кафе-магазин;ТРЦ Гринвич, 8 Марта, 46, 2 этаж
56.847074;60.615664;Географ;кофейня;Мамина-Сибиряка, 85, 1 этаж
56.85287;60.551421;McCafe;сеть кофеен;ТРЦ Карнавал, Халтурина, 55, 1 этаж
56.8356;60.634613;CoffeeStreet;кофейня;Восточная, 7ж, 1 этаж
56.814225;60.621105;Дом выпечки;сеть кафе-пекарен;Белинского, 132, 1 этаж
56.838818;60.590581;Жизнь;кафе-бар;Антона Валека, 15, 1 этаж
56.90322;60.613107;Wake Cup;мини-кофейня;Космонавтов проспект, 47д, 1 этаж
56.902408;60.6237;9 ОСТРОВОВ;кондитерская торговая сеть;Фрезеровщиков, 27
56.819404;60.650496;Prime-Time;кофейня;Сибирский тракт, 12 ст5, 1 этаж
56.836165;60.55686;Европейская пекарня;сеть кафе-пекарен;Татищева, 62
56.824998;60.625526;Ли-Ли;кафе-пекарня;Декабристов, 16/18ж, 1 этаж
56.823207;60.619144;Black & White;кофейня;Белинского, 83, 1 этаж
56.818006;60.538143;COFFEE & CHOCOLATE;кофейня;Радуга Парк, Репина, 94
56.825936;60.612154;Bow Jones Coffee;сеть мини-кофеен;БЦ Nebo, Народной Воли, 65, 1 этаж
56.904224;60.598516;Лакомка;кафе-кондитерская;ТЦ Калинка, 40 лет Октября, 75, 1 этаж
56.833583;60.592489;Simple Coffee;кофейня;Хохрякова, 23
56.816933;60.634103;Не торты, а торты;кофейня-кондитерская;Ткачей, 13а
56.833631;60.596931;Поль Бейкери;сеть кафе-пекарен;ДЦ Малышева 36, Малышева, 36, 1 этаж
56.842577;60.616396;Французский Пекарь;сеть кофеен-пекарен;Мамина-Сибиряка, 64, 1 этаж
56.843268;60.572851;Wake Cup;мини-кофейня;Юмашева, 5, 1 этаж
56.750094;60.80062;Шоколадница;сеть кофеен;Аэропорт Кольцово, Бахчиванджи площадь, 1, терминал В, 2 этаж
56.82083;60.649716;Prime-Time;кофейня;Сибирский тракт, 12 ст3, 1 этаж
56.806961;60.61234;Street Market Food & Buffet;кафе-магазин;ТРЦ Мегаполис, 8 Марта, 149, 1 этаж
56.843013;60.625415;Дом выпечки;сеть кафе-пекарен;Бажова, 79, 1 этаж
56.85234;60.64754;9 ОСТРОВОВ;кондитерская торговая сеть;Мира, 3
56.792695;60.619618;Европейская пекарня;сеть кафе-пекарен;Родонитовая, 5, 1 этаж
56.823845;60.605354;Black & White;кофейня;8 Марта, 51, 1 этаж
56.833154;60.599217;Bow Jones Coffee;сеть мини-кофеен;8 Марта, 12а, 1 этаж
56.794968;59.907603;Лакомка;кафе-кондитерская;Олега Кошевого, 20а, 1 этаж
56.819901;60.652587;Prime-Time;кофейня;Сибирский тракт, 12 ст8, 1 этаж
56.830272;60.600943;Simple Coffee;кофейня;8 Марта, 32
56.818006;60.538143;Не торты, а торты;кофейня-кондитерская;Радуга Парк, Репина, 94, 2 этаж
56.835009;60.609886;Поль Бейкери;сеть кафе-пекарен;Малышева, 64, 1 этаж
56.837106;60.615774;Французский Пекарь;сеть кофеен-пекарен;БЦ Антей, Красноармейская, 10, 1 этаж
56.830781;60.624415;Дом выпечки;сеть кафе-пекарен;Луначарского, 185, 1 этаж
56.79598;59.90621;9 ОСТРОВОВ;кондитерская торговая сеть;Максима Горького, 35
56.835309;60.60709;Европейская пекарня;сеть кафе-пекарен;Горького, 35, 1 этаж
56.835541;60.591044;Black & White;кофейня;БЦ Палладиум, Хохрякова, 10, 1 этаж
56.839034;60.592842;Bow Jones Coffee;сеть мини-кофеен;БЦ Прайм, Антона Валека, 13, 1 этаж
56.820974;60.650634;Prime-Time;кофейня;Сибирский тракт, 12 ст2, 1 этаж
56.82426;60.504972;Simple Coffee;кофейня;МеГа, Металлургов, 87, 1 этаж
56.832359;60.582391;Поль Бейкери;сеть кафе-пекарен;ТРЦ Алатырь, Малышева, 5, 1 этаж
56.740613;60.543147;Французский Пекарь;сеть кофеен-пекарен;Нескучная, 3, 1 этаж
56.90144;59.94835;9 ОСТРОВОВ;кондитерская торговая сеть;Чкалова, 38
56.828557;60.625157;Black & White;кофейня;Луначарского, 205, 2 этаж
56.815033;60.624494;Bow Jones Coffee;сеть мини-кофеен;Цвиллинга, 7, 104 офис, 1 этаж
56.827973;60.600681;Поль Бейкери;сеть кафе-пекарен;ТРЦ Гринвич, 8 Марта, 46, 3 этаж
56.843995;60.653497;Французский Пекарь;сеть кофеен-пекарен;УрФУ, Мира, 19, 1 этаж
56.832148;60.585426;Bow Jones Coffee;сеть мини-кофеен;Architector, Малышева, 8, 2 этаж
56.83976;60.619736;Поль Бейкери;сеть кафе-пекарен;Ленина проспект, 48, 1 этаж
56.816652;60.536186;Французский Пекарь;сеть кофеен-пекарен;Радуга Парк, Репина, 94, 1 этаж
56.82974;60.616153;Bow Jones Coffee;сеть мини-кофеен;Белинского, 56, 1 этаж
56.806545;60.612776;Поль Бейкери;сеть кафе-пекарен;ТРЦ Мегаполис, 8 Марта, 149, 1 этаж
56.840304;60.616261;Французский Пекарь;сеть кофеен-пекарен;УрФУ, Ленина проспект, 51, 1 этаж
56.834115;60.622372;Bow Jones Coffee;сеть мини-кофеен;Деловой дом Филитцъ, Энгельса, 36, 1 этаж, 1 подъезд
56.796564;60.62711;Поль Бейкери;сеть кафе-пекарен;ТЦ Дирижабль, Академика Шварца, 17, 1 этаж
56.831165;60.603163;Bow Jones Coffee;сеть мини-кофеен;Добролюбова, 16, 8 этаж
56.79344;60.520414;Поль Бейкери;сеть кафе-пекарен;ТРЦ Академический, Краснолесья, 133, 1 этаж
56.841526;60.58192;Bow Jones Coffee;сеть мини-кофеен;ДЦ Микрон, Челюскинцев, 2, 1 этаж
56.863569;60.630474;Поль Бейкери;сеть кафе-пекарен;ТРЦ Парк Хаус, Сулимова, 50, 3 этаж
56.843434;60.626554;Bow Jones Coffee;сеть мини-кофеен;Первомайская, 56, 1 этаж
56.816777;60.53741;Поль Бейкери;сеть кафе-пекарен;Радуга Парк, Репина, 94, 1 этаж
56.818535;60.616747;Bow Jones Coffee;сеть мини-кофеен;Большакова, 61, 1 этаж
56.829234;60.672064;Поль Бейкери;сеть кафе-пекарен;КомсоМолл, Сибирский тракт дублёр, 2, 1 этаж
56.837285;60.615709;Bow Jones Coffee;сеть мини-кофеен;БЦ Антей, Красноармейская, 10, 1 этаж
56.788833;60.648635;Поль Бейкери;сеть кафе-пекарен;ТРК Глобус, Щербакова, 4
56.844476;60.616656;Bow Jones Coffee;сеть мини-кофеен;БЦ Манхэттен, Мамина-Сибиряка, 101, 1 этаж, супермаркет Верный
56.816347;60.586208;Поль Бейкери;сеть кафе-пекарен;ТРЦ ФанФан, Ясная, 2, 1 этаж
56.863797;60.619553;Bow Jones Coffee;сеть мини-кофеен;Маяковского, 25а, 1 этаж
56.823775;60.504993;Поль Бейкери;сеть кафе-пекарен;МеГа, Металлургов, 87, 1 этаж
56.82363;60.617212;Bow Jones Coffee;сеть мини-кофеен;ЖК Белинского 86, Белинского, 86, 1 этаж
56.795691;60.581153;Поль Бейкери;сеть кафе-пекарен;ТЦ КИТ, Амундсена, 65, 1 этаж
56.823207;60.619144;Bow Jones Coffee;сеть мини-кофеен;Белинского, 83, 1 этаж
