latitude;longitude;Название;Описание;Адрес
56.83703;60.593147;Планета здоровья;аптеки;Ленина проспект, 24
56.793177;60.519839;Фармленд;сеть аптек;Луначарского, 136, 1 этаж
56.885551;60.636011;Аптека №7;;Старых Большевиков, 3а
56.896831;60.640703;Лекон-Фарм;сеть аптек;Баумана, 51
56.88856;60.612884;Аптека от склада;сеть аптек;ТЦ Стрелка, Космонавтов проспект, 23а, 1 этаж
56.834631;60.588364;Удобная аптека;;Попова, 13, 1 этаж
56.837073;60.584736;СЛАВИЯ;аптека;Ленина проспект, 5/1
56.805956;60.624549;Пилюлькин;аптека;Белинского, 188, 1 этаж
56.870455;60.551417;Вита;аптека;Бебеля, 162
56.8087;60.609197;Уралочка;аптека;8 Марта, 150, 1 этаж
56.847105;60.643415;Живика;сеть аптек;Гагарина, 6, 1 этаж
56.821398;60.591009;УГМК-Здоровье;сеть аптек;Шейнкмана, 113, 1 этаж
56.808866;60.609632;ВитаЭкспресс;сеть аптек;Щорса, 92, 1 этаж
56.803988;60.630836;ТриА;аптека;Переходный переулок, 9, 1 этаж
56.853994;60.561489;Фармаимпекс;аптека;БЦ Актив, Опалихинская, 27а, 1 этаж
56.897656;60.622019;Здоровье;сеть аптек;Старых Большевиков, 75, 1 этаж
56.817862;60.609432;Городская центральная аптека;;Большакова, 81, 1 этаж
56.854239;60.654292;САНДАЛ;аптека;Комсомольская, 8, 1 этаж
56.887952;60.614182;На Баумана;аптека;Баумана, 1, 1 этаж
56.815127;60.555667;Диолла;аптека;Волгоградская, 204
56.793936;60.575372;Премьер-Фарм;сеть аптек;Амундсена, 68, 1 этаж
56.808253;60.610699;Аптека66Плюс;;Автовокзал Южный, 8 Марта, 145, 1 этаж
56.903697;60.601922;Мелисса;аптека;Индустрии, 57/1, 1 этаж
56.889262;60.629287;Макси-фармА;аптека;Краснофлотцев, 15, 1 этаж
56.75296;60.696162;Витаминка;аптека;Грибоедова, 12, 1 этаж
56.854016;60.61571;Центральная гомеопатическая аптека;;Луначарского, 21, 1 этаж
56.798109;60.61476;Государственная аптека;;Юлиуса Фучика, 1
56.862206;60.636186;КЛАССИКА;сеть аптек;Сулимова, 42а, 1 этаж
56.85379;60.560735;Дар;аптека;Опалихинская, 27, 1 этаж
56.86595;60.641555;Знахарь;сеть аптек;Вилонова, 14а, 1 этаж
56.79795;60.764819;Аюрведа;аптека;Латвийская, 54, 1 этаж
56.818107;60.559854;Новая больница;сеть аптек;Шаумяна, 105/1, 1 этаж
56.795895;60.631139;Фарма-Вита;аптека;Академика Шварца, 20/1, 1 этаж
56.901963;60.614722;Здравница;сеть аптек;Космонавтов проспект, 72, 1 этаж
56.825715;60.584397;Здравствуй;сеть аптек;Гурзуфская, 16, 1 этаж
56.841003;60.62992;Аптека.Ру;;Ленина проспект, 56, 1 этаж
56.793221;60.517675;Дарина;аптека;Вильгельма де Геннина, 32
56.888057;60.61584;АНГАРА;аптека;Баумана, 3, 1 этаж
56.836093;60.5987;Аптека на Театральном;;Театральный переулок, 2а, 1 этаж
56.840904;60.570553;Екатеринбургфарм;сеть аптек;Крылова, 1, 1 этаж
56.779082;60.700545;Биона;аптека;Светлый микрорайон, 2, 1 этаж
56.778235;60.599585;Авант ЛТД;сеть аптек;Братская, 18, 1 этаж
56.856011;60.654479;Надежная;аптека;Комсомольская, 5, 1 этаж
56.856164;60.639644;Клевер;аптека;Советская, 41, 1 этаж
56.829082;60.545079;Ваша Аптека;аптека;Викулова, 41, 1 этаж
56.795238;60.494006;Аптека на Савкова;;Евгения Савкова, 3, 1 этаж
56.842818;60.646177;Благодар;аптека;Ленина проспект, 72, 1 этаж
56.836854;60.591365;ВИШИ;аптека;Ленина проспект, 22, 1 этаж
56.830985;60.555387;Витамин;аптечный пункт;Крауля, 52
56.822496;60.572625;Кит-аптека;;Посадская, 31, 1 этаж
56.98203;60.561174;Центральная районная аптека №57;;Кривоусова, 40, 1 этаж
56.814726;60.600917;Аптека Здорово;;Фурманова, 63, 1 этаж
56.781299;60.669591;Аптека96.ru;;Рощинская, 29, 1 этаж
56.810725;60.514737;БРУСНИКА;аптека;ЖК Аврора, Соболева, 19, 9 секция
56.803519;60.54706;Семейная аптека;;Начдива Онуфриева, 10, 1 этаж
56.79885;60.582961;Витамакс;аптека;Амундсена, 61, 1 этаж
56.881908;60.632182;РАДУГА;аптека;О`КЕЙ, Бабушкина, 2а, 2 этаж
56.851187;60.570796;Велес;аптечный пункт;Готвальда, 6/4, вход с ул. Одинарка
56.804493;60.560529;ОФИЦИНА;аптека;Академика Бардина, 29, 1 этаж
56.831071;60.550532;Биофармация;аптека;Крауля, 70, 1 этаж
56.90529;60.595754;Айболит;аптека;Восстания, 91, 1 этаж
56.81935;60.666449;Фармация;сеть аптек;Сибирский тракт, 49, 1 этаж
56.862585;60.632881;Валета;аптека;Учителей, 6, 1 этаж
56.85098;60.649906;Пульс;аптека;Академическая, 13
56.807047;60.5982;Алоэ;сеть аптек;ЖК Квартал художников, Щорса, 109, 1 этаж
56.913428;60.820923;АптекарЪ;аптека;Спортивная, 8, 1 этаж
56.843065;60.641633;Мандрагора;гомеопатическая аптека;Ленина проспект, 99, 1 этаж
56.880552;60.51188;Дукат;аптечный пункт;Кишинёвская, 54, 1 этаж
56.800025;60.493066;Валета;аптека;Петра Кожемяко бульвар, 16/2, 1 этаж
56.869573;60.541534;Магис-Фарм;сеть аптек;Таватуйская, 8, 1 этаж
56.781265;60.546722;Шалфей;аптека низких цен;Краснолесья, 14/2
56.786333;60.64842;Лиа;аптека;Щербакова, 7, 1 этаж
56.847994;60.644068;Йодлик;аптека;Гагарина, 17, 1 этаж
56.903893;60.599418;Фармлэнд;аптека;Восстания, 89, 1 этаж
56.841296;60.580183;Аптечный Мир;сеть аптек;Челюскинцев, 1, 1 этаж
56.800886;60.494871;Эликсир;аптека;Суходольская, 47
56.745312;60.570235;Барвинок;аптека;Лучистая, 2, 1 этаж
56.832904;60.56901;Мелодия Здоровья;сеть аптек;Мельникова, 27, 1 этаж
56.813749;60.591605;БИОФОРМАТ;аптека;Фурманова, 113
56.834547;60.546025;Хорошая аптека;;Викулова, 33/1, 1 этаж
56.779798;60.675219;Виктория-Фарм;сеть аптек;Рощинская, 50, 1 этаж
56.794952;60.622836;Медея;сеть аптек;Академика Шварца, 12/2, 1 этаж
56.807475;60.595987;СТЕЛЛА-ФАРМ;аптека;Щорса, 132, 1 этаж
56.796278;60.512207;Альвиара;аптека;Рябинина, 21, 1 этаж
56.816286;60.610973;ВитаЕ;аптека;Степана Разина, 41, 1 этаж
56.83131;60.624156;Радуга;аптечная сеть;Луначарского, 181, 1 этаж
56.772665;60.59178;Фемили-Фарм;аптека;Палисадная, 12
56.832478;60.582138;Диана;сеть аптек;ТРЦ Алатырь, Малышева, 5, -1 этаж
56.804251;60.611012;А-МЕГА;аптека;8 Марта, 190
56.796131;60.582507;Аптека от склада;;Денисова-Уральского бульвар, 13
56.782712;60.537135;Фармика;аптека;Чкалова, 248
56.800029;60.574212;Аптека;ИП Пестова М.Б.;Академика Бардина, 40/1, 1 этаж
56.823057;60.591094;Фиан;аптека;Шейнкмана, 111
56.823406;60.548512;Аптека Витамин;;Репина, 52, вход с торца
56.830087;60.635667;Октава плюс;аптека;Восточная, 158, 1 этаж
56.823501;60.634433;Медико-фармацевтический центр Гармония;аптека;Тверитина, 16, 1 этаж
56.839024;60.678694;Лекарства Урала;сеть аптек;Владимира Высоцкого, 10, 1 этаж
56.835092;60.594618;Зеленая Аптека;сеть аптек;Попова, 1Б, 1 этаж
56.778286;60.605491;АПТЕКА ПОДОРОЖНИК;;Братская, 5, 3 помещение
56.906216;60.61309;Городские аптеки;;Космонавтов проспект, 53, 1 этаж
56.858773;60.630122;Омнифарм;аптека;Уральская, 57/1, 1 этаж
56.764229;60.598341;Лавита;сеть аптек;Эскадронная, 29, 1 этаж
56.795185;60.569586;Польза;аптека;Решетникова проезд, 22а, 1 этаж, супермаркет Яблоко
56.810394;60.609725;Эдельвейс;аптека;8 Марта, 127, 1 этаж
56.788778;60.531761;Мира;аптечная сеть;Анатолия Мехренцева, 11, 1 этаж
56.866852;60.532598;Линвита-фарм;аптека;Техническая, 34, 1 этаж
56.828049;60.648977;Низкие цены;аптека;Куйбышева, 100, 1 этаж
56.909149;60.599239;Забота;аптека;Новаторов, 10, 1 этаж
56.79799;60.63423;Лерус;аптека;Белинского, 173, 1 этаж
56.843434;60.626621;Кристина;аптека;Первомайская, 56, 1 этаж
56.781484;60.600162;Аптека;Консилиум, консультативно-диагностический центр;Военная, 22
56.991699;60.476738;Аптека24.ру;сеть аптек;Калинина, 2а, 1 этаж
56.862462;60.632846;Аптека низких цен;;Учителей, 6, 1 этаж
56.848656;60.598738;Зверобой;аптека;Красный переулок, 12, 1 этаж
56.856016;60.586454;Домашний доктор;аптека;Стрелочников, 7
56.766572;60.554423;ДНК;аптека;Предельная, 63, 1 этаж
56.837394;60.64709;Преображенская клиника;аптека;Гагарина, 28, 1 этаж
56.812067;60.515956;Мир здоровья;аптечный пункт;Соболева, 5, 1 этаж
56.825013;60.625109;Аптека низких цен;;Декабристов, 16/18ж, 1 этаж
56.823923;60.628056;Альянс-Медфарм;аптека;Обороны площадь, 1, 1 этаж
56.800849;60.585457;Форум Урал;сеть аптек;Амундсена, 53, 1 этаж
56.760534;60.81266;ЕК Фарма;аптека;Авиаторов, 10, 1 этаж
56.828361;60.683388;Здоровая семья;аптека;Новгородцевой, 31, 1 этаж
56.833198;60.562381;Жизнь;аптека;Токарей, 27, цокольный этаж
56.833164;60.614608;ЛАЙФ;аптека;Белинского, 30, 1 этаж
56.76912;60.61241;Аптека №215;;Санаторная, 8, 1 этаж
56.830442;60.634465;СМТ-ФАРМ;аптека;Куйбышева, 78, 1 этаж
56.973397;60.577555;Айболит плюс;сеть аптек;Кривоусова, 18д, 1 этаж
56.830598;60.542866;Будь здоров;аптека;Крауля, 73Б, сеть Монетка
56.901324;60.593699;Цито-Фарма;аптека;Победы, 70, 1 этаж
56.881384;60.51697;Столет;аптечная сеть;Билимбаевская, 15, 1 этаж, супермаркет Кировский
56.866843;60.531639;Сентябрь;аптека;Техническая, 36, 1 этаж
56.768024;60.605935;ФармМедТорг;сеть аптек;Санаторная, 19, 1 этаж
56.834946;60.661255;Стимул-плюс;аптека;Комсомольская, 76, 1 этаж
56.792189;60.624631;Здравия;аптека;Родонитовая, 18, 1 этаж
56.863058;60.558821;АнФарм;аптека;Софьи Перовской, 107, 1 этаж
56.855341;60.633652;Подорожник;аптека;Уральская, 68/1
56.883334;60.500128;Советская аптека 196;;Техническая, 154, 1 этаж
56.761972;60.705455;Китайский медицинский центр;аптека;Дагестанская, 10, 1 этаж
56.847731;60.601554;У метро Динамо;аптека;Красный переулок, 15, 1 этаж
56.910956;60.80238;Прогресс;аптека;Исакова, 4а
56.853572;60.603684;Амур;аптека;Свердлова, 25
56.805832;60.557171;Альфа-6;аптека;Академика Бардина, 17, 1 этаж
56.784925;60.544755;РАДФАРМ;аптечный пункт;Академика Семихатова Н.А. бульвар, 18
56.684588;60.840706;Арамильская аптека;сеть аптек;Ленина, 2д, 1 этаж
56.900001;60.749377;Аптека низких цен;;Академика Королёва, 6, 1 этаж
56.803259;60.557193;Твоя экономия;аптека;Академика Бардина, 23, 1 этаж
56.908788;60.592692;Фармика;аптека;Бакинских Комиссаров, 100, 1 этаж
56.901401;60.584401;Аптечная сеть ВИОЛА;аптека;Уральских Рабочих, 77, 1 этаж
56.826085;60.642526;ТД Альянс;аптека;Буторина, 11, 1 этаж
56.893831;59.958383;Аптека №458;;Комсомольская, 15/1, 1 этаж
56.833114;60.661532;МИРА-НОВА;аптека;Библиотечная, 45, 1 этаж
56.771364;60.61258;Екатерина;аптека;Ремесленный переулок, 6, 1 этаж
56.736721;60.948028;Медуница;аптека;Ленина, 129
56.903811;60.584933;АПТЕКА ВИДА;;Бакинских Комиссаров, 99, 1 этаж
56.800399;60.573227;Эвкалипт;аптека низких цен;Академика Бардина, 40/1, 1 этаж
56.821391;60.606002;РиВаДа;аптека;8 Марта, 57
56.863999;60.537763;Максимум;аптека;Техническая, 27, 1 этаж
56.84287;60.628538;Аура;аптека;Мичурина, 47
56.830815;60.621559;Forma;аптека;Мамина-Сибиряка, 193, 1 этаж
56.79275;60.499963;Радуга;аптечный пункт;Академика Сахарова проспект, 107/1, 2 этаж
56.816142;60.609697;EAPTEKA.RU;аптека;Фурманова, 52, 1 этаж
56.839003;60.581177;Лечебная косметика-1;аптечный салон;Московская, 19, 1 этаж
56.831345;60.537744;Ла Вита;аптека;Крауля, 83, 1 этаж
56.978052;60.549388;Семейный доктор;аптека;Сварщиков, 2а, 1 этаж
56.907116;60.823549;Венера;аптека;Больничный городок, 3, 1 этаж
56.775722;60.610819;Уралтехпроект;аптека;Сухоложская, 5, 1 этаж
56.787083;60.520311;Аптека;;Павла Шаманова, 16
56.899982;60.609975;Аптека семейная;;Восстания, 7
56.821737;60.57032;Да, Здоров!;сеть аптек;Посадская, 24, 1 этаж
56.75371;60.690739;ABC;аптека;Орденоносцев, 10, 1 этаж
56.795714;59.904074;Вегур;аптека;Олега Кошевого, 13
56.890257;60.611758;Ай-Болит;аптека;Кузнецова, 14, 1 этаж
56.983828;60.550593;Арм-Мед Здоровье;аптека;Машиностроителей, 6Б, 1 этаж
56.867063;60.533955;Арония;аптека;Надеждинская, 9а, 1 этаж
56.90448;59.944228;Новая Больница;сеть аптек;Ватутина, 38, 1 этаж
56.802169;60.568758;Семейная аптека;;Академика Бардина, 30, 1 этаж
56.984253;60.555478;Айболит;;Уральских Рабочих, 46, 1 этаж
56.855343;60.571753;Эрис;сеть аптек;Черепанова, 30, 1 этаж
56.856803;60.566668;Алория;аптека;Черепанова, 28
56.780053;60.880096;Фарм Групп НТ;аптека;Главная, 17, 1 этаж
56.837453;60.630081;Здоровье и красота;аптека;Малышева, 87, 1 этаж
56.700595;60.846433;А2;сеть аптек;Рабочая, 104, 1 этаж
56.836904;60.552861;Гранат;аптека низких цен;Заводская, 20
56.908401;60.800154;Компаньон;сеть аптек;Красных Героев, 6а, 1 этаж
56.912471;60.611404;Ранкая;аптека;Космонавтов проспект, 71
56.804439;59.909041;Долголетие;сеть аптек;Максима Горького, 12, 1 этаж
56.802646;60.626137;Эпиона;аптека;Трактористов переулок, 9, 1 этаж
56.83958;60.571598;Дельта;аптека низких цен;Верх-Исетский бульвар, 18
56.771987;60.585787;Ека-Фарм;аптека;Симферопольская, 26а, 1 этаж
56.802119;60.602581;А2;аптека;Авиационная, 10, 1 этаж, супермаркет Верный
56.782814;60.881192;Медэнергофарм;аптека;Главная, 18Б
56.700833;60.829054;Арамильская фармацевтическая компания;аптека;Пролетарская, 2а, 1 этаж
56.835388;60.550798;Дария;аптека;Татищева, 77, 1 этаж
56.830638;60.557223;Формула Здоровья;аптечный пункт;Крауля, 48/1, 1 этаж
56.754708;60.702549;Первоцвет;аптека низких цен;Грибоедова, 23, 1 этаж
56.813875;60.549563;Атравматика-МедСервис;аптека;ДЦ Олимп, Начдива Васильева, 1/4, 1 этаж
56.885583;60.509215;Октябрь;аптека;Билимбаевская, 30, 1 этаж
56.816862;60.562976;Твоя экономия;аптека;ТЦ GoodMart, Белореченская, 28, 1 этаж
56.978528;60.563373;Прогресс;аптечный пункт;Чайковского, 39, 1 этаж
56.824611;60.708235;Радуга;аптека;ТК Лента, Сибирский тракт дублёр, 19/1, 1 этаж
56.822255;60.628859;Аптека;ИП Ахмерова А.Л.;Тверитина, 19, 1 этаж
56.832758;60.672624;Медицинский сервис;аптека;Новгородцевой, 11Б, 1 этаж
56.799792;60.593945;ТАБЛЕТКА+;аптечная сеть;Московская, 200, 1 этаж
56.898989;60.749779;Прия Фарм;аптека;Толбухина, 11, 1 этаж
56.862037;60.647536;Равновесие;аптека;Боровая, 19, 1 этаж
56.760909;60.701938;НАША АПТЕКА;;Инженерная, 75, 1 этаж
56.984782;60.472363;Сугрэс;аптечный пункт;Парижской Коммуны, 3а, 1 этаж
56.779022;60.54777;АФМ сервис;аптека;ТЦ Краснолесье, Краснолесья, 12а, 1 этаж
56.677164;60.806472;ЭЙВА;аптечная сеть;Колхозная, 18, 1 этаж
56.749036;60.607024;Екатеринбург-Фармация;аптека;Селькоровская, 100/1, 1 этаж
56.851043;60.594358;Волга;аптека;Челюскинцев, 62, 1 этаж
56.816114;60.59281;Байкал;аптека;Большакова, 149, 1 этаж
56.818418;60.583771;Аирмед;аптека;Посадская, 77, 1 этаж
56.9035;59.942307;Аптека низких цен;;Ватутина, 37
56.818034;60.618607;Инвет;аптека;УрГАУ, Белинского, 112а, 1 этаж
56.714779;60.773888;Ваше здоровье;аптечный пункт;Ленина, 148а
56.890156;60.581347;Аптека;ИП Гайсина И.А.;Культуры, 28, 1 этаж
56.795586;59.90506;Аптека низких цен;;Олега Кошевого, 15, 1 этаж
56.85735;60.604998;Здрава;аптечный пункт;Челюскинцев, 27, 1 этаж
56.738164;60.961189;Лексервис;аптека;Кузнечная, 13
56.911613;59.922414;Лекарь;аптека;Емлина, 10, 1 этаж
56.997125;60.60731;АГАТ-ФАРМ;аптека;Первомайская, 36, 1 этаж
56.750192;60.79992;Здоровые люди;аптека;Аэропорт Кольцово, Бахчиванджи площадь, 1, терминал А, 2 этаж
56.854156;60.557742;Забота;аптека;Опалихинская, 27, 1 этаж, магазин Пятерочка
56.913088;59.957085;Новая Аптека;сеть аптек;Строителей, 32Б, цокольный этаж
56.634681;60.829746;Здоровье;аптека;Свердлова, 34
56.710453;60.950123;Альянс;аптечный пункт;Светлый посёлок, 7а, 1 этаж
56.901937;59.944086;Ваш доктор;аптека;Герцена, 14
56.956737;60.679608;Аптечный пункт;ИП Кардашина Т.И.;Верстовая, 6
56.897034;59.939714;Уралнет;сеть аптек;Металлургов, 6, 1 этаж
56.804115;59.909638;Гармония;аптечный пункт;Максима Горького, 9, 1 этаж
56.901524;60.62091;Целитель;Аптека низких цен;Фрезеровщиков, 27, 1 этаж
56.894327;59.937187;УралЦентроМед;аптечный пункт;Гагарина, 36а, 1 этаж
56.909579;59.931582;Гранд Фармация;аптека;ТЦ Марс, Космонавтов проспект, 13
56.688163;60.837464;Камелия;аптека;1 Мая, 75, 1 этаж
56.736814;60.966896;Аптека 5+;;Ленина, 48
56.716171;60.787589;Эффект;аптечный пункт;Кооперативная, 2
56.695616;60.834307;Аптека ПЛЮС;;1 Мая, 27, 1 этаж
56.636092;60.826118;Виола;аптека;Свердлова, 45/1
56.970246;60.350849;Исеть;аптечный пункт;Мира, 20, 1 этаж
56.799529;59.902073;Аптека №1;;Мира, 3
56.851602;60.129963;Аптечный пункт;;Геологический переулок, 3
56.806229;60.552455;Аптека;;Академика Бардина, 9а
56.71366;60.92186;Аптека;ИП Титова Г.И.;Заводская, 12
56.690483;60.511561;Авантаж;аптека;Колхозная, 14, 1 этаж
56.802848;59.93073;Здрава;аптека;Карла Либкнехта, 27, 1 этаж
56.952902;60.600694;Наша;аптека;Безымянный переулок, 1а лит Б
56.910331;59.962499;Ваш доктор;аптека;Вайнера, 21, 1 этаж
56.80015;59.934345;ВитаЭкспресс;аптека;Ленина, 20
56.856553;60.633589;Живика;сеть аптек;Уральская, 61, 1 этаж
56.827432;60.601895;Планета здоровья;аптеки;Куйбышева, 57
56.827888;60.588525;УГМК-Здоровье;сеть аптек;Шейнкмана, 73, 1 этаж
56.831062;60.636288;ВитаЭкспресс;сеть аптек;Восточная, 13, 1 этаж
56.797519;60.762943;ТриА;аптека;Латвийская, 55, 1 помещение, 1 этаж
56.857078;60.604681;Фармаимпекс;аптека;Челюскинцев, 25
56.839962;60.646063;Здоровье;сеть аптек;Гагарина, 22, 1 этаж
56.792691;60.617447;СЛАВИЯ;аптека;Родонитовая, 3/1, 1 этаж
56.836871;60.594489;Городская центральная аптека;;Вайнера, 8, 1 этаж
56.833091;60.659146;Диолла;аптека;Библиотечная, 43, 1 этаж
56.822268;60.624094;Премьер-Фарм;сеть аптек;Тверитина, 38/1, 1 этаж
56.853617;60.634116;Аптека66Плюс;;Советская, 25, 1 этаж
56.840107;60.646009;Фармленд;сеть аптек;Гагарина, 22, 1 этаж
56.781185;60.551829;Витаминка;аптека;Академика Семихатова Н.А. бульвар, 6, 1 этаж
56.830882;60.583715;Центральная гомеопатическая аптека;;Московская, 28
56.795589;60.615248;Государственная аптека;;Академика Шварца, 4, 1 этаж
56.903295;60.614571;КЛАССИКА;сеть аптек;Космонавтов проспект, 74, 1 этаж
56.840892;60.676561;Знахарь;сеть аптек;Владимира Высоцкого, 10, 1 этаж
56.805857;60.557103;Аптека от склада;сеть аптек;Академика Бардина, 17, 1 этаж
56.790159;60.644146;Новая больница;сеть аптек;Щербакова, 3/1, 1 этаж
56.890886;60.597443;Здравница;сеть аптек;Кировградская, 28, 1 этаж
56.853409;60.555383;Здравствуй;сеть аптек;Опалихинская, 31
56.889862;60.631031;Лекон-Фарм;сеть аптек;Краснофлотцев, 19, 1 этаж
56.867765;60.557801;Екатеринбургфарм;сеть аптек;Пехотинцев, 13, 1 этаж
56.886846;60.615787;Авант ЛТД;сеть аптек;Баумана, 2, 1 этаж
56.9003;60.61836;Благодар;аптека;Старых Большевиков, 77, 1 этаж
56.978273;60.564078;Центральная районная аптека №57;;Чайковского, 37, 1 этаж
56.834513;60.622106;Аптека Здорово;;Луначарского, 182, 1 этаж
56.810966;60.513499;БРУСНИКА;аптека;ЖК Аврора, Соболева, 19, 1 этаж
56.688678;60.517576;ОФИЦИНА;аптека;ЦК Горный Щит, Ленина, 12а, 1 этаж
56.784024;60.54187;Биофармация;аптека;Чкалова, 239, 1 этаж
56.897266;60.594809;Айболит;аптека;Уральских Рабочих, 49, 1 этаж
56.812395;60.603511;Фармация;сеть аптек;Уктусская, 31, 1 этаж
56.817084;60.606124;Валета;аптека;Большакова, 95, 1 этаж
56.82237;60.542877;Алоэ;сеть аптек;Викулова, 61/4, 1 этаж
56.855855;60.604838;Живика;сеть аптек;Свердлова, 66, 1 этаж
56.789455;60.515785;Планета здоровья;аптеки;Вильгельма де Геннина, 45, 1 этаж
56.795065;59.971586;УГМК-Здоровье;сеть аптек;Кирзавод, 4, 1 этаж
56.854276;60.635418;ВитаЭкспресс;сеть аптек;Уральская, 70, 2 этаж
56.813582;60.621246;Валета;аптека;Белинского, 132, 1 этаж
56.884137;60.498921;Магис-Фарм;сеть аптек;Техническая, 160
56.834752;60.684796;Фармаимпекс;аптека;Сиреневый бульвар, 1, 1 этаж
56.889476;60.573145;Шалфей;аптека низких цен;22 Партсъезда, 20
56.800896;60.571623;Здоровье;сеть аптек;Академика Бардина, 34, 1 этаж
56.793625;60.621671;Йодлик;аптека;Родонитовая, 15, 1 этаж
56.902041;60.612662;Городская центральная аптека;;Космонавтов проспект, 45
56.841036;60.63021;Аптечный Мир;сеть аптек;Ленина проспект, 56, 1 этаж
56.851044;60.574612;Диолла;аптека;Колмогорова, 73 к1, 1 этаж
56.828188;60.588583;Премьер-Фарм;сеть аптек;Радищева, 33, 1 этаж
56.817763;60.562444;Аптека66Плюс;;Шаумяна, 100, 1 этаж
56.85173;60.656705;Мелодия Здоровья;сеть аптек;Комсомольская, 17, 1 этаж
56.814401;60.614358;Фармленд;сеть аптек;Чапаева, 30
56.768322;60.607658;Виктория-Фарм;сеть аптек;Санаторная, 15, 1 этаж
56.844816;60.5757;Витаминка;аптека;Папанина, 5, 1 этаж
56.849952;60.564822;Медея;сеть аптек;Опалихинская, 16, 1 этаж
56.812184;60.607335;Центральная гомеопатическая аптека;;8 Марта, 120Б, 1 этаж
56.859622;60.620705;КЛАССИКА;сеть аптек;Смазчиков, 3, 1 этаж
56.812743;60.599172;Радуга;аптечная сеть;Фрунзе, 78, 3 помещение
56.837632;60.545724;Знахарь;сеть аптек;Татищева, 92
56.834488;60.684775;Аптека от склада;сеть аптек;Сиреневый бульвар, 1, 1 этаж
56.816319;60.585917;Диана;сеть аптек;ТРЦ ФанФан, Ясная, 2, 1 этаж
56.838425;60.553216;Новая больница;сеть аптек;Заводская, 12, 1 этаж
56.8288;60.590798;А-МЕГА;аптека;Радищева, 33, 1 этаж
56.861986;60.651121;Здравница;сеть аптек;Сулимова, 4, 1 этаж
56.787054;60.51124;Фармика;аптека;Академика Сахарова проспект, 57, 1 этаж
56.8356;60.634613;Здравствуй;сеть аптек;Восточная, 7ж, 1 этаж
56.892142;60.601567;Лекон-Фарм;сеть аптек;Ильича, 28
56.761535;60.815176;Лекарства Урала;сеть аптек;Авиаторов, 1, 1 этаж
56.852698;60.604531;Екатеринбургфарм;сеть аптек;Свердлова, 11, 1 этаж
56.636228;60.586162;Зеленая Аптека;сеть аптек;Ленина, 16, 1 этаж
56.77129;60.600552;АПТЕКА ПОДОРОЖНИК;;Ферганская, 1
56.817013;60.564362;Городские аптеки;;Шаумяна, 96, 1 этаж
56.851227;60.630825;Авант ЛТД;сеть аптек;Советская, 12, 1 этаж, магазин Пятёрочка
56.772652;60.599688;Лавита;сеть аптек;Патриса Лумумбы, 4/4, 1 этаж, гипермаркет РАЙТ
56.819239;60.539867;Благодар;аптека;Репина, 88
56.796941;60.512077;Мира;аптечная сеть;Рябинина, 19, 1 этаж
56.965684;60.609825;Центральная районная аптека №57;;Победы, 5
56.9822;60.553352;Аптека24.ру;сеть аптек;Уральских Рабочих, 50, 1 этаж
56.868732;60.553642;Аптека низких цен;;Бебеля, 156, 1 этаж
56.906621;60.621895;ДНК;аптека;Шефская, 108, 1 этаж
56.888469;60.625817;Фармация;сеть аптек;Краснофлотцев, 7, 1 этаж
56.821238;60.60445;Валета;аптека;Сапёров переулок, 5, 1 этаж
56.84849;60.616085;Форум Урал;сеть аптек;Шевченко, 8, 1 этаж
56.831047;60.617842;Алоэ;сеть аптек;Красноармейская, 68, 1 этаж
56.810311;60.508456;Здоровая семья;аптека;Соболева, 23/1
56.90525;59.952439;Жизнь;аптека;ТРЦ Строитель, Ильича проспект, 31
56.782829;60.664823;Валета;аптека;Рощинская, 21 к2, 1 этаж
56.88124;60.509094;Магис-Фарм;сеть аптек;Кунарская, 14 к3, 1 этаж
56.979602;60.558368;Айболит плюс;сеть аптек;Юбилейная, 11, 1 этаж
56.890525;60.744506;Будь здоров;аптека;Берёзовский тракт, 15, 1 этаж
56.792119;60.770007;Столет;аптечная сеть;Латвийская, 36, 1 этаж, супермаркет Кировский
56.885877;60.569194;Аптечный Мир;сеть аптек;Суворовский переулок, 12, 1 этаж
56.781861;60.674212;ФармМедТорг;сеть аптек;Патриотов, 6 к2, 1 этаж
56.796508;60.626963;Мелодия Здоровья;сеть аптек;ТЦ Дирижабль, Академика Шварца, 17, 1 этаж
56.786511;60.525786;Виктория-Фарм;сеть аптек;Анатолия Мехренцева, 42, 1 этаж
56.799062;60.576784;Медея;сеть аптек;Академика Бардина, 48, 1 этаж
56.809571;60.563106;Радуга;аптечная сеть;Волгоградская, 185, 3 этаж
56.909048;60.800075;Аптека низких цен;;Красных Героев, 3, 1 этаж
56.832978;60.588625;Твоя экономия;аптека;Малышева, 17а, 1 этаж
56.856845;60.603454;А-МЕГА;аптека;Челюскинцев, 23, 1 этаж
56.912019;59.933157;Аптека №458;;Космонавтов проспект, 22
56.796141;60.49379;Городские аптеки;;Евгения Савкова, 4, 1 этаж
56.792786;59.903782;Лавита;сеть аптек;Максима Горького, 48, 1 этаж
56.854129;60.559028;Живика;сеть аптек;Опалихинская, 27, 1 этаж
56.853001;60.573963;Лечебная косметика-1;аптечный салон;Готвальда, 14, супермаркет Верный
56.813145;60.608054;Планета здоровья;аптеки;8 Марта, 118
56.792711;60.62976;Мира;аптечная сеть;Тбилисский бульвар, 5, 1 этаж
56.836937;60.592195;ВитаЭкспресс;сеть аптек;Ленина проспект, 22а
56.821913;60.576798;Уралтехпроект;аптека;Пальмиро Тольятти, 30, 1 этаж
56.780038;60.609767;Здоровье;сеть аптек;Титова, 24, 1 этаж
56.808076;60.598979;Да, Здоров!;сеть аптек;Серова, 41
56.78046;60.633995;Городская центральная аптека;;Благодатская, 72, 1 этаж
56.976197;60.564759;Аптека24.ру;сеть аптек;Менделеева, 6, 1 этаж
56.834876;60.679895;Аптека низких цен;;Сыромолотова, 18/2, 1 этаж
56.805186;59.914615;Вегур;аптека;Карла Либкнехта, 76а, 1 этаж
56.791306;60.512433;Премьер-Фарм;сеть аптек;Павла Шаманова, 38
56.816577;60.632138;ДНК;аптека;БЦ Clever Park, Ткачей, 23, 1 этаж
56.901265;60.613191;Аптека66Плюс;;Космонавтов проспект, 43, 1 этаж
56.902095;59.942975;Новая Больница;сеть аптек;Ватутина, 34, 1 этаж
56.901372;60.614788;Фармленд;сеть аптек;Космонавтов проспект, 72, 1 этаж
56.784693;60.735883;Витаминка;аптека;Ялунинская, 2, 1 этаж
56.836475;60.616046;Эрис;сеть аптек;ТРЦ Антей, Малышева, 53, 1 этаж
56.782526;60.633215;КЛАССИКА;сеть аптек;Шишимская, 10, 1 этаж
56.713929;60.830113;Здоровая семья;аптека;ТГ Арамильский привоз, Пролетарская, 82, 1 этаж
56.690256;60.836924;А2;сеть аптек;1 Мая, 69
56.781984;60.608447;Аптека от склада;сеть аптек;Военная, 1а, 1 этаж
56.902675;60.635601;Ранкая;аптека;Таганская, 48, 1 этаж
56.797798;60.583111;Новая больница;сеть аптек;Амундсена, 61, 1 этаж
56.978083;60.596473;Айболит плюс;сеть аптек;Петрова, 11, 1 этаж
56.803395;59.926325;Долголетие;сеть аптек;Павла Зыкина, 16
56.821645;60.568516;Здравница;сеть аптек;Белореченская, 10, 1 этаж
56.988671;60.45766;Здравствуй;сеть аптек;Уральская, 25, 1 этаж
56.773997;60.818838;Столет;аптечная сеть;Реактивная, 66, супермаркет Кировский
56.815328;60.563691;Лекон-Фарм;сеть аптек;Белореченская, 23/2
56.740948;60.608536;ФармМедТорг;сеть аптек;Бисертская, 4, 1 этаж
56.833048;60.690108;Екатеринбургфарм;сеть аптек;Панельная, 13
56.897805;60.579179;Авант ЛТД;сеть аптек;Кировградская, 70, 1 этаж
56.836262;60.622803;Благодар;аптека;Малышева, 98, 1 этаж
56.80303;60.611427;ТАБЛЕТКА+;аптечная сеть;8 Марта, 190, 1 этаж
56.899004;60.745607;Прия Фарм;аптека;Максима Горького, 26
56.696335;60.796411;ЭЙВА;аптечная сеть;Гарнизон, 18, 1 этаж
56.904291;59.92431;Аптека №458;;Емлина, 22, 1 этаж
56.77849;60.88028;Инвет;аптека;Главная, 21
56.888124;60.611604;Фармация;сеть аптек;Кузнецова, 2, 1 этаж
56.890475;60.569609;Аптека;ИП Гайсина И.А.;Донбасская, 12, 1 этаж
56.753005;60.696295;Валета;аптека;Грибоедова, 12, 1 этаж
56.897625;60.741774;Здрава;аптечный пункт;Энергостроителей, 6а
56.796615;60.622303;Алоэ;сеть аптек;Академика Шварца, 15, 1 этаж
56.838137;60.595258;Лечебная косметика-1;аптечный салон;Торговый деловой центр Европа, Ленина проспект, 25, цокольный этаж
56.75034;60.803559;Здоровые люди;аптека;Аэропорт Кольцово, Бахчиванджи площадь, 1, терминал Б, 1 этаж
56.831012;60.552196;Валета;аптека;Крауля, 56, 1 этаж
56.912889;59.962884;Новая Аптека;сеть аптек;Вайнера, 29а, 1 этаж
56.784428;60.601994;Аптечный Мир;сеть аптек;Агрономическая, 2, 1 этаж
56.913375;60.823807;Мелодия Здоровья;сеть аптек;Яблоко, Гагарина, 22, 1 этаж
56.881866;60.002251;УралЦентроМед;аптечный пункт;Сакко и Ванцетти, 9, 1 этаж
56.918593;59.956531;Новая Больница;сеть аптек;Вайнера, 61, 1 этаж
56.775264;60.605934;Медея;сеть аптек;Агрономическая, 30, 1 этаж
56.798406;60.559967;Эрис;сеть аптек;На громова, Громова, 145, 1 этаж
56.845664;60.643729;Радуга;аптечная сеть;Первомайская, 79, 1 этаж
56.919025;59.957048;А2;сеть аптек;Вайнера, 88, 1 этаж, супермаркет Верный
56.784184;60.544152;А-МЕГА;аптека;Краснолесья, 26, 1 этаж
56.79863;59.906379;Долголетие;сеть аптек;Мира, 16, 1 этаж
56.831501;60.544086;Городские аптеки;;Викулова, 38Б, 1 этаж
56.816386;60.536479;Мира;аптечная сеть;Радуга Парк, Репина, 94, 1 этаж
56.907304;60.811038;ТАБЛЕТКА+;аптечная сеть;ТЦ Центральный, Театральная, 6, 1 этаж
56.986936;60.548519;Аптека24.ру;сеть аптек;Машиностроителей, 7, 1 этаж
56.687911;60.851329;ЭЙВА;аптечная сеть;Октябрьская, 131, 1 этаж
56.843138;60.643081;Аптека низких цен;;Ленина проспект, 99, 1 этаж
56.974184;60.566955;Айболит плюс;сеть аптек;Успенский проспект, 99, 1 этаж
56.962463;59.818361;Новая Аптека;сеть аптек;Ленина, 108
56.834806;60.682722;Столет;аптечная сеть;Сиреневый бульвар, 2, 1 этаж
56.954102;59.800122;УралЦентроМед;аптечный пункт;Карла Маркса, 75, 1 этаж
56.792259;60.621542;Живика;сеть аптек;Родонитовая, 12, 1 этаж
56.805281;60.610666;Планета здоровья;аптеки;8 Марта, 188, 1 этаж
56.851346;60.641589;ВитаЭкспресс;сеть аптек;Гагарина, 1, 1 этаж
56.838073;60.608759;Здоровье;сеть аптек;Пушкина, 16, 1 этаж
56.907707;60.609846;Городская центральная аптека;;Черноярская, 10, 1 этаж
56.897976;59.879373;Аптека №458;;Сантехизделий, 27а, 1 этаж
56.8977;59.954877;Премьер-Фарм;сеть аптек;Трубников, 52, 1 этаж
56.810564;60.623112;Аптека66Плюс;;Белинского, 141
56.829889;60.560131;Фармленд;сеть аптек;Крауля, 51, 1 этаж
56.813636;60.608556;КЛАССИКА;сеть аптек;8 Марта, 99, 1 этаж
56.852932;60.551172;Лечебная косметика-1;аптечный салон;ТРЦ Карнавал, Халтурина, 55, 1 этаж
56.809081;60.600592;Аптека от склада;сеть аптек;Сурикова, 48, 1 этаж
56.812331;60.567102;Новая больница;сеть аптек;Ясная, 36/1
56.809717;60.618585;Здравница;сеть аптек;Щорса, 60
56.900493;60.599543;Лекон-Фарм;сеть аптек;Индустрии, 47
56.820042;60.537438;Екатеринбургфарм;сеть аптек;Репина, 107, 1 этаж
56.893191;59.954982;Новая Больница;сеть аптек;Трубников, 44Б, 1 этаж
56.819896;60.591542;Авант ЛТД;сеть аптек;Шейнкмана, 119, цокольный этаж
56.902635;60.590433;Благодар;аптека;Победы, 94, 1 этаж
56.79813;59.912527;Долголетие;сеть аптек;Мира, 21
56.810268;60.560932;Фармация;сеть аптек;Волгоградская, 185, 2 этаж
56.856509;60.554999;Валета;аптека;Черепанова, 4
56.845841;60.61855;Алоэ;сеть аптек;Луначарского, 87, 1 этаж
56.683395;60.838183;ТАБЛЕТКА+;аптечная сеть;ТЦ Шишкин парк, Новая, 2а, 1 этаж
56.783628;60.652105;Валета;аптека;Щербакова, 41, 1 этаж
56.849667;60.56387;Аптечный Мир;сеть аптек;Опалихинская, 17, 1 этаж
56.897992;59.953582;Мелодия Здоровья;сеть аптек;ТЦ Галактика, Трубников, 52а, 1 этаж
56.714964;60.76404;Медея;сеть аптек;Ленина, 168, 1 этаж
56.904293;60.822078;Радуга;аптечная сеть;Косых, 5, 1 этаж
56.834683;60.677226;А-МЕГА;аптека;ТЦ 21 век, Новгородцевой, 13а, 1 этаж
56.897979;59.88061;УралЦентроМед;аптечный пункт;Сантехизделий, 23
56.901273;60.618682;Городские аптеки;;Старых Большевиков, 82/1, 1 этаж
56.8126;60.554223;Мира;аптечная сеть;Волгоградская, 189/3, 1 этаж
56.98264;60.552876;Аптека24.ру;сеть аптек;Уральских Рабочих, 50а, 1 этаж, магазин Квартал
56.690618;60.836946;Аптека низких цен;;1 Мая, 69, 5 помещение
56.98264;60.552876;Айболит плюс;сеть аптек;Уральских Рабочих, 50а, 1 этаж
56.86156;60.647015;Столет;аптечная сеть;Боровая, 19, 1 этаж, супермаркет Кировский
56.908792;59.960943;Аптека №458;;Вайнера, 15а, 1 этаж
56.904939;59.945837;Новая Больница;сеть аптек;Ильича проспект, 23а/1, 1 этаж
56.786927;60.647776;Живика;сеть аптек;Щербакова, 7, 1 этаж
56.836206;60.553692;Планета здоровья;аптеки;Заводская, 11
56.88656;60.591121;ВитаЭкспресс;сеть аптек;Культуры, 2
56.755178;60.704726;Здоровье;сеть аптек;Грибоедова, 25, 1 этаж
56.886568;60.569336;Городская центральная аптека;;Черниговский переулок, 11, 1 этаж
56.831579;60.544367;Аптека66Плюс;;Викулова, 38Б
56.839756;60.619702;Фармленд;сеть аптек;Ленина проспект, 48
56.841312;60.645559;КЛАССИКА;сеть аптек;Гагарина, 20
56.83317;60.552128;Аптека от склада;сеть аптек;Заводская, 34, 1 этаж
56.850053;60.595504;Новая больница;сеть аптек;Челюскинцев, 60, 1 этаж
56.820974;60.650634;Здравница;сеть аптек;Сибирский тракт, 12 ст2, 1 этаж
56.740602;60.608048;Лекон-Фарм;сеть аптек;Бисертская, 4, 1 этаж
56.851103;60.56672;Екатеринбургфарм;сеть аптек;Готвальда, 15, 1 этаж
56.834461;60.680021;Благодар;аптека;Сыромолотова, 20, 1 этаж
56.98315;60.475866;Фармация;сеть аптек;Бахтеева, 8, 1 этаж
56.809345;60.622834;Валета;аптека;ТЦ Марс, Щорса, 29 Марс, 1 этаж
56.861554;60.613516;Алоэ;сеть аптек;Космонавтов проспект, 2
56.83539;60.591867;Валета;аптека;Попова, 10, 1 этаж
56.848874;60.564618;Аптечный Мир;сеть аптек;Опалихинская, 15, 1 этаж
56.896741;59.942103;Мелодия Здоровья;сеть аптек;Ватутина, 20, 1 этаж
56.753125;60.707858;Медея;сеть аптек;Инженерная, 31, 1 этаж
56.833443;60.6757;Радуга;аптечная сеть;Новый дом, Новгородцевой, 13Б, 1 этаж
56.902891;60.623679;А-МЕГА;аптека;Шефская, 85, 1 этаж
56.7829;60.519203;Городские аптеки;;Академика Сахарова проспект, 47, 1 этаж
56.762496;60.569229;Мира;аптечная сеть;Предельная, 16, 1 этаж
56.969158;60.580397;Аптека24.ру;сеть аптек;Спицына, 9, 1 этаж
56.904083;60.6006;Столет;аптечная сеть;ТЦ Кировский Люкс, Восстания, 50, 1 этаж
56.953621;59.803074;Аптека №458;;Мира, 6а/1
56.9052;59.954467;Новая Больница;сеть аптек;Ильича проспект, 29а, -1 этаж
56.856524;60.601673;Живика;сеть аптек;Челюскинцев, 19, 1 этаж
56.808629;60.608492;Планета здоровья;аптеки;Щорса, 94
56.786482;60.521061;ВитаЭкспресс;сеть аптек;Павла Шаманова, 6
56.821157;60.603339;Здоровье;сеть аптек;Сапёров переулок, 3, 1 этаж
56.789576;60.516011;Аптека66Плюс;;Вильгельма де Геннина, 45
56.800063;60.629829;Фармленд;сеть аптек;Белинского, 222, 1 этаж
56.834649;60.606741;КЛАССИКА;сеть аптек;Малышева, 56, 1 этаж
56.857213;60.630666;Аптека от склада;сеть аптек;Уральская, 60, 1 этаж
56.833514;60.583456;Новая больница;сеть аптек;Московская, 49, 1 этаж
56.79435;60.774225;Екатеринбургфарм;сеть аптек;Белоярская, 26, 1 этаж
56.980646;60.546373;Благодар;аптека;Успенский проспект, 127а, 1 этаж
56.804712;60.506472;Фармация;сеть аптек;Соболева, 29/2, 1 этаж
56.856137;60.641617;Валета;аптека;Советская, 56, 1 этаж
56.800602;59.907533;Алоэ;сеть аптек;Максима Горького, 30
56.862716;60.576685;Валета;аптека;Лётчиков, 12
56.684679;60.842185;Радуга;аптечная сеть;Ленина, 2в, 1 этаж
56.914319;59.945743;А-МЕГА;аптека;Ленина, 16а
56.851615;60.630146;Городские аптеки;;Советская, 11, 1 этаж
56.972003;60.570105;Аптека24.ру;сеть аптек;Успенский проспект, 93, 1 этаж
56.873028;60.515326;Столет;аптечная сеть;БД СоветникЪ, Маневровая, 9, 1 этаж, супермаркет Кировский
56.909856;59.932811;Новая Больница;сеть аптек;Космонавтов проспект, 20, 1 этаж
56.895509;60.600641;Живика;сеть аптек;Уральских Рабочих, 28, 1 этаж
56.792616;60.521968;Планета здоровья;аптеки;Вильгельма де Геннина, 31
56.795278;60.577048;ВитаЭкспресс;сеть аптек;Амундсена, 64, 1 этаж
56.85708;60.607471;Аптека66Плюс;;Челюскинцев, 29, 1 этаж
56.868799;60.553538;Фармленд;сеть аптек;Бебеля, 156, 1 этаж
56.826331;60.668131;КЛАССИКА;сеть аптек;Хрустальная, 35а, 1 этаж
56.896301;60.6403;Аптека от склада;сеть аптек;Баумана, 58, 1 этаж
56.820301;60.575954;Новая больница;сеть аптек;Посадская, 34
56.809528;60.71167;Екатеринбургфарм;сеть аптек;Волчанский переулок, 3, 1 этаж
56.851917;60.640736;Благодар;аптека;ТЦ Аида, Блюхера, 39, 2 этаж
56.696939;60.833038;Фармация;сеть аптек;1 Мая, 15, 1 этаж
56.865635;60.532674;Валета;аптека;Техническая, 37, 1 этаж
56.828066;60.599818;Алоэ;сеть аптек;ТРЦ Гринвич, 8 Марта, 46, 0 этаж
56.894322;60.604126;Валета;аптека;Ильича, 38, 1 этаж
56.794893;60.623546;Радуга;аптечная сеть;Академика Шварца, 14г, 1 этаж
56.88357;60.50675;А-МЕГА;аптека;Билимбаевская, 33, 1 этаж
56.825368;60.574343;Городские аптеки;;Гурзуфская, 36, 1 этаж
56.965795;60.604671;Столет;аптечная сеть;Петрова, 34Б, 1 этаж
56.88592;59.891913;Новая Больница;сеть аптек;Ильича, 8, 1 этаж
56.835501;60.633628;Живика;сеть аптек;Восточная, 76, цокольный этаж
56.831127;60.636264;Планета здоровья;аптеки;Восточная, 13
56.819304;60.540057;ВитаЭкспресс;сеть аптек;Репина, 88, 1 этаж
56.792733;60.623854;Аптека66Плюс;;Родонитовая, 23, 1 этаж
56.824803;60.626608;Фармленд;сеть аптек;Луначарского, 217
56.819459;60.538297;КЛАССИКА;сеть аптек;Репина, 107, 1 этаж
56.865104;60.536687;Аптека от склада;сеть аптек;Техническая, 26, 1 этаж
56.824101;60.588897;Новая больница;сеть аптек;Шейнкмана, 102, 1 этаж
56.797068;59.906664;Благодар;аптека;Максима Горького, 27, 1 этаж
56.96253;59.820541;Фармация;сеть аптек;Ленина, 98
56.897773;60.640797;Валета;аптека;Таганская, 10, 1 этаж
56.843628;60.576842;Алоэ;сеть аптек;Шевелёва, 8, 1 этаж
56.812895;60.630211;Валета;аптека;Машинная, 1Б к2, 1 этаж
56.885773;60.570753;Радуга;аптечная сеть;Суворовский переулок, 5, 1 этаж
56.908808;60.819964;А-МЕГА;аптека;Анучина, 6
56.894528;60.61949;Городские аптеки;;Стачек, 55, 1 этаж
56.98126;60.546335;Столет;аптечная сеть;ТЦ Город Vip, Успенский проспект, 127, 1 этаж, супермаркет Кировский
56.891049;59.888555;Новая Больница;сеть аптек;Ильича, 32, 1 этаж
56.834555;60.68478;Живика;сеть аптек;Сиреневый бульвар, 1, 1 этаж
56.812101;60.559639;Планета здоровья;аптеки;Волгоградская, 190
56.834737;60.687142;ВитаЭкспресс;сеть аптек;Сыромолотова, 24, 1 этаж
56.977979;60.559052;Аптека66Плюс;;Успенский проспект, 48/1, 1 этаж
56.824711;60.622877;Фармленд;сеть аптек;Декабристов, 16/18в, 1 этаж
56.834907;60.661256;КЛАССИКА;сеть аптек;Комсомольская, 76
56.775689;60.607677;Аптека от склада;сеть аптек;Сухоложская, 12
56.839671;60.626968;Новая больница;сеть аптек;Ленина проспект, 54/5
56.98183;60.547419;Фармация;сеть аптек;Успенский проспект, 60, 1 этаж
56.801548;60.570169;Валета;аптека;Академика Бардина, 32/1, 1 этаж
56.902982;60.583872;Алоэ;сеть аптек;Бакинских Комиссаров, 95
56.793513;60.634599;Валета;аптека;Крестинского, 59/1, 1 этаж
56.900824;59.947822;Радуга;аптечная сеть;Чкалова, 39, 1 этаж
56.897898;60.750377;А-МЕГА;аптека;Толбухина, 9
56.752516;60.709276;Городские аптеки;;Инженерная, 30, 1 этаж
56.751039;60.620333;Столет;аптечная сеть;Бисертская, 103, супермаркет Кировский
56.798392;60.578565;Живика;сеть аптек;Академика Бардина, 48, 1 этаж
56.792715;60.624287;Планета здоровья;аптеки;Родонитовая, 23, 1 этаж
56.805199;60.625916;ВитаЭкспресс;сеть аптек;Белинского, 163г
56.791704;60.519961;Аптека66Плюс;;Вильгельма де Геннина, 33, 1 этаж
56.811928;60.560197;Фармленд;сеть аптек;Волгоградская, 190
56.793117;60.509191;КЛАССИКА;сеть аптек;Павла Шаманова, 52, 1 этаж
56.832218;60.567283;Аптека от склада;сеть аптек;Ключевская, 15, 1 этаж
56.883376;60.506425;Новая больница;сеть аптек;Дружининская, 48, 1 этаж
56.70373;60.085028;Фармация;сеть аптек;Калинина, 20, 1 этаж
56.906828;60.614638;Валета;аптека;БелкаМаркет, Космонавтов проспект, 86, 1 этаж
56.886756;60.59174;Алоэ;сеть аптек;Орджоникидзе проспект, 1, 1 этаж
56.904138;60.622024;Валета;аптека;Шефская, 87/1, 1 этаж
56.795121;60.626883;Радуга;аптечная сеть;Академика Шварца, 16/2, 1 этаж
56.8819;60.003567;А-МЕГА;аптека;Сакко и Ванцетти, 12
56.957347;60.681028;Городские аптеки;;Сибирка, 28, 1 этаж
56.882597;60.011456;Столет;аптечная сеть;Талица, 7, 1 этаж, супермаркет Кировский
56.845691;60.617966;Живика;сеть аптек;Луначарского, 78, 1 этаж
56.848941;60.616823;Планета здоровья;аптеки;Луначарского, 60, 1 этаж
56.745827;60.567865;ВитаЭкспресс;сеть аптек;Счастливая, 4, 1 этаж
56.848148;60.617117;Аптека66Плюс;;Луначарского, 74, 1 этаж
56.848053;60.617135;Фармленд;сеть аптек;Луначарского, 74
56.79966;60.61364;КЛАССИКА;сеть аптек;8 Марта, 179в, 1 этаж
56.861695;60.645715;Аптека от склада;сеть аптек;Боровая, 19, 1 этаж
56.792444;60.574955;Новая больница;сеть аптек;Амундсена, 73
56.88602;60.583835;Алоэ;сеть аптек;22 Партсъезда, 2, 1 этаж, от входа направо
56.848362;60.565049;Валета;аптека;Опалихинская, 15, 1 этаж
56.888254;60.632776;Радуга;аптечная сеть;Старых Большевиков, 9, 2 этаж
56.913317;59.962157;А-МЕГА;аптека;Вайнера, 35, 1 этаж
56.91162;59.950596;Столет;аптечная сеть;Ленина, 8, 2 этаж
56.853112;60.645285;Живика;сеть аптек;Блюхера, 18, 1 этаж
56.840991;60.660207;Планета здоровья;аптеки;Малышева, 146, 1 этаж
56.893479;60.615081;ВитаЭкспресс;сеть аптек;Красных Командиров, 1, 1 этаж
56.885145;60.576278;Аптека66Плюс;;Машиностроителей, 14, 1 этаж
56.842666;60.644923;Фармленд;сеть аптек;Ленина проспект, 70, 1 этаж
56.894966;60.602052;КЛАССИКА;сеть аптек;Уральских Рабочих, 28, 1 этаж
56.821257;60.569534;Аптека от склада;сеть аптек;Белореченская, 7
56.782351;60.541772;Новая больница;сеть аптек;Краснолесья, 28
56.90255;59.95243;Алоэ;сеть аптек;Трубников, 27, 1 этаж
56.787081;60.649966;Радуга;аптечная сеть;Щербакова, 8, 1 этаж
56.904658;59.959248;А-МЕГА;аптека;Ильича проспект, 37
56.974049;60.576944;Столет;аптечная сеть;ТЦ Кировский, Орджоникидзе, 18, 1 этаж
56.804355;60.55536;Живика;сеть аптек;Академика Бардина, 19, 1 этаж
56.912907;60.822973;Планета здоровья;аптеки;Гагарина, 15/1
56.754915;60.705527;ВитаЭкспресс;сеть аптек;Грибоедова, 26, 1 этаж
56.991466;60.476518;Аптека66Плюс;;Калинина, 2а, 1 этаж
56.788667;60.517153;Фармленд;сеть аптек;Павла Шаманова, 28, 1 этаж
56.804647;60.603227;КЛАССИКА;сеть аптек;Циолковского, 29, 1 этаж
56.83074;60.545588;Аптека от склада;сеть аптек;Крауля, 65
56.783644;60.740943;Новая больница;сеть аптек;Варшавская, 38, 1 этаж
56.919553;59.953257;Алоэ;сеть аптек;Береговая, 58, 1 этаж
56.751268;60.703918;Радуга;аптечная сеть;Зои Космодемьянской, 42, 1 этаж
56.917663;59.958165;А-МЕГА;аптека;Вайнера, 57, 1 этаж
56.804728;59.926438;Столет;аптечная сеть;Павла Зыкина, 14, супермаркет Кировский
56.834742;60.686423;Живика;сеть аптек;Сыромолотова, 24, 1 этаж
56.838364;60.611321;Планета здоровья;аптеки;Ленина проспект, 38а, 1 этаж
56.841469;60.659759;ВитаЭкспресс;сеть аптек;Комсомольская, 53, 1 этаж
56.781888;60.60815;Фармленд;сеть аптек;Военная, 1а
56.832084;60.596546;КЛАССИКА;сеть аптек;Вайнера, 15а, 1 этаж
56.851397;60.557313;Аптека от склада;сеть аптек;Бебеля, 120, 1 этаж
56.857189;60.649834;Новая больница;сеть аптек;Блюхера, 61, 1 этаж
56.793582;59.924856;Алоэ;сеть аптек;Павла Зыкина, 27, 1 этаж
56.894186;59.935824;Радуга;аптечная сеть;Гагарина, 38а, 2 этаж
56.806295;59.928024;А-МЕГА;аптека;Павла Зыкина, 9
56.903472;59.959299;Столет;аптечная сеть;ТЦ Пассаж, Ильича проспект, 28в, 1 этаж
56.834482;60.553068;Живика;сеть аптек;Заводская, 17, 1 этаж
56.97309;60.577255;Планета здоровья;аптеки;Кривоусова, 18д, 1 этаж
56.809219;60.622876;ВитаЭкспресс;сеть аптек;ТЦ Марс, Щорса, 29 Марс, 1 этаж
56.835253;60.615289;Фармленд;сеть аптек;Малышева, 84, цокольный этаж
56.805322;60.611893;КЛАССИКА;сеть аптек;Циолковского, 57, 1 этаж
56.900706;60.620475;Аптека от склада;сеть аптек;Фрезеровщиков, 26, 1 этаж
56.906635;60.617629;Новая больница;сеть аптек;Парниковая, 2, 1 этаж
56.804825;60.505856;Радуга;аптечная сеть;Соболева, 29/3, 1 этаж
56.791298;60.777127;А-МЕГА;аптека;Карельская, 47/1, 1 этаж
56.792789;60.518448;Живика;сеть аптек;Вильгельма де Геннина, 34, 1 этаж
56.896231;60.605719;Планета здоровья;аптеки;ТЦ Победа, Ильича, 47
56.862134;60.638598;ВитаЭкспресс;сеть аптек;Сулимова, 42, 1 этаж
56.904356;60.598087;Фармленд;сеть аптек;Восстания, 91
56.801039;60.63021;КЛАССИКА;сеть аптек;ЖК Альбатрос, Саввы Белых, 1
56.867311;60.532547;Аптека от склада;сеть аптек;Надеждинская, 9
56.891664;60.5727;Новая больница;сеть аптек;Культуры, 25, 1 этаж
56.885859;60.573216;Радуга;аптечная сеть;Суворовский переулок, 5в, 1 этаж
56.840674;60.67997;Живика;сеть аптек;Сыромолотова, 7, 1 этаж
56.834662;60.69106;Планета здоровья;аптеки;Панельная, 9а, 1 этаж
56.895009;60.601941;ВитаЭкспресс;сеть аптек;Уральских Рабочих, 28
56.834802;60.553147;Фармленд;сеть аптек;Заводская, 17
56.881189;60.516404;КЛАССИКА;сеть аптек;Билимбаевская, 17, 1 этаж
56.897548;60.594416;Аптека от склада;сеть аптек;Уральских Рабочих, 51, 1 этаж
56.784266;60.601279;Новая больница;сеть аптек;Рижский переулок, 16
56.890146;59.88392;Радуга;аптечная сеть;50 лет СССР, 9, 1 этаж
56.832229;60.54443;Живика;сеть аптек;Викулова, 38а, 1 этаж
56.791804;60.518068;Планета здоровья;аптеки;Вильгельма де Геннина, 34
56.855345;60.604579;ВитаЭкспресс;сеть аптек;Свердлова, 66, 1 этаж
56.829862;60.568489;Фармленд;сеть аптек;Крауля, 4
56.909478;60.818347;КЛАССИКА;сеть аптек;Анучина, 7, 1 этаж
56.831019;60.551346;Аптека от склада;сеть аптек;Заводская, 40
56.832321;60.55417;Новая больница;сеть аптек;Заводская, 29
56.705958;60.084161;Радуга;аптечная сеть;Калинина, 6, 1 этаж
56.900628;60.615972;Живика;сеть аптек;Старых Большевиков, 91, 1 этаж
56.856744;60.602917;Планета здоровья;аптеки;Челюскинцев, 21
56.866306;60.531186;ВитаЭкспресс;сеть аптек;Техническая, 41, 1 этаж
56.86278;60.631303;Фармленд;сеть аптек;ТРЦ Парк Хаус, Сулимова, 50, 1 этаж
56.858029;60.655924;КЛАССИКА;сеть аптек;Студенческая, 2, 1 этаж
56.90127;59.952969;Аптека от склада;сеть аптек;Трубников, 60, 1 этаж
56.750409;60.70589;Новая больница;сеть аптек;Косарева, 15, 1 этаж
56.795635;59.902468;Радуга;аптечная сеть;Олега Кошевого, 4, 1 этаж
56.828349;60.597435;Живика;сеть аптек;Вайнера, 60, 1 этаж
56.899695;60.598379;Планета здоровья;аптеки;Победы, 38
56.845788;60.617929;ВитаЭкспресс;сеть аптек;Луначарского, 78, 1 этаж
56.836493;60.546834;Фармленд;сеть аптек;Татищева, 90
56.830459;60.624478;КЛАССИКА;сеть аптек;Луначарского, 189
56.755049;60.706179;Аптека от склада;сеть аптек;Грибоедова, 26, 1 этаж
56.807597;60.540489;Новая больница;сеть аптек;Серафимы Дерябиной, 34а, 1 этаж
56.801991;59.922779;Радуга;аптечная сеть;Спартака, 5, 1 этаж
56.792708;60.62697;Живика;сеть аптек;Родонитовая, 27, 1 этаж
56.837238;60.621242;Планета здоровья;аптеки;Луначарского, 136, 1 этаж
56.902222;60.623147;ВитаЭкспресс;сеть аптек;Фрезеровщиков, 27, 1 этаж
56.802014;60.598643;Фармленд;сеть аптек;Айвазовского, 53, 1 этаж
56.975208;60.565487;КЛАССИКА;сеть аптек;Успенский проспект, 101, 1 этаж
56.832321;60.55417;Новая больница;сеть аптек;Заводская, 29, 1 этаж
57.002329;60.774844;Радуга;аптечная сеть;Школьная, 3а, 1 этаж
56.885084;60.510343;Живика;сеть аптек;Билимбаевская, 28Б/1, 1 этаж
56.896149;60.638694;Планета здоровья;аптеки;Баумана, 47, 1 этаж
56.879254;60.509428;ВитаЭкспресс;сеть аптек;Техническая, 136, 1 этаж
56.895845;60.589097;Фармленд;сеть аптек;Орджоникидзе проспект, 19
56.909435;60.593523;КЛАССИКА;сеть аптек;Коммунистическая, 20
56.824748;60.511379;Новая больница;сеть аптек;Metro, Металлургов, 85, 1 этаж
56.897367;59.941415;Радуга;аптечная сеть;Ватутина, 23, 1 этаж
56.829958;60.635716;Живика;сеть аптек;Восточная, 158, 1 этаж
56.795781;59.906127;Планета здоровья;аптеки;Максима Горького, 35
56.786502;60.648237;ВитаЭкспресс;сеть аптек;Щербакова, 7, 1 этаж
56.806753;60.612919;Фармленд;сеть аптек;ТРЦ Мегаполис, 8 Марта, 149, 1 этаж
56.893514;60.588893;КЛАССИКА;сеть аптек;Кировградская, 17, 1 этаж
56.831679;60.553613;Новая больница;сеть аптек;Заводская, 29 к2, 1 этаж
56.890697;59.876371;Радуга;аптечная сеть;Огнеупорщиков, 38, 1 этаж
56.808336;60.605548;Живика;сеть аптек;Щорса, 96, 1 этаж
56.978926;60.55781;Планета здоровья;аптеки;Юбилейная, 13, 1 этаж
56.837079;60.626758;ВитаЭкспресс;сеть аптек;Бажова, 130, 1 этаж
56.83677;60.679376;Фармленд;сеть аптек;Сыромолотова, 14, 1 этаж
56.782785;60.541046;КЛАССИКА;сеть аптек;Чкалова, 241, 1 этаж
56.808683;59.925968;Радуга;аптечная сеть;Энгельса, 35, 1 этаж
56.768813;60.61277;Живика;сеть аптек;Санаторная, 3, 1 этаж
56.785287;60.517152;ВитаЭкспресс;сеть аптек;Академика Сахарова проспект, 64, 1 этаж
56.860751;60.647018;Фармленд;сеть аптек;Сулимова, 23
56.912188;59.949546;КЛАССИКА;сеть аптек;ТЦ КИТ, Ленина, 10, 1 этаж
56.699481;60.086559;Радуга;аптечная сеть;Калинина, 36, 1 этаж
56.816459;60.562245;Живика;сеть аптек;ТК Буревестник, Белореченская, 28а, 1 этаж
56.806215;60.614321;ВитаЭкспресс;сеть аптек;Степана Разина, 95
56.839385;60.60994;Фармленд;сеть аптек;Ленина проспект, 41, 1 этаж
56.894715;60.627223;КЛАССИКА;сеть аптек;Энтузиастов, 27, 1 этаж
56.693163;60.088812;Радуга;аптечная сеть;Калинина, 58, 1 этаж
56.830458;60.559603;Живика;сеть аптек;Крауля, 44
56.830339;60.545108;ВитаЭкспресс;сеть аптек;Крауля, 69
56.836033;60.56029;Фармленд;сеть аптек;Татищева, 56, 1 этаж
56.828423;60.590937;КЛАССИКА;сеть аптек;Радищева, 33
56.854897;60.643642;Живика;сеть аптек;Блюхера, 47а, 1 этаж
56.83678;60.552807;ВитаЭкспресс;сеть аптек;Заводская, 20, 1 этаж
56.835728;60.582495;Фармленд;сеть аптек;Московская, 35, 1 этаж
56.825725;60.595139;КЛАССИКА;сеть аптек;ТЦ Весенний, Хохрякова, 98, 1 этаж
56.868587;60.554403;Живика;сеть аптек;Пехотинцев, 10, 1 этаж
56.792703;60.624305;ВитаЭкспресс;сеть аптек;Родонитовая, 23, 1 этаж
56.849404;60.627995;Фармленд;сеть аптек;Советская, 6а, 1 этаж
56.887662;60.624505;КЛАССИКА;сеть аптек;Краснофлотцев, 5, 1 этаж
56.822864;60.542294;Живика;сеть аптек;Викулова, 61/3, 1 этаж
56.904448;59.94386;ВитаЭкспресс;сеть аптек;Ватутина, 38, 1 этаж
56.824187;60.699709;Фармленд;сеть аптек;40-летия Комсомола, 38а, 1 этаж
56.854156;60.557742;КЛАССИКА;сеть аптек;Опалихинская, 27
56.900447;60.612149;Живика;сеть аптек;Ильича, 71, 1 этаж
56.797777;60.634911;ВитаЭкспресс;сеть аптек;Белинского, 175
56.896711;60.640232;Фармленд;сеть аптек;Баумана, 51
56.84348;60.6309;КЛАССИКА;сеть аптек;Первомайская, 62, 1 этаж
56.851032;60.616089;Живика;сеть аптек;Луначарского, 48, 1 этаж
56.79492;60.517772;ВитаЭкспресс;сеть аптек;Краснолесья, 147, 1 этаж
56.836263;60.594553;Фармленд;сеть аптек;ТЦ Успенский, Вайнера, 10, 1 этаж
56.895885;60.639048;КЛАССИКА;сеть аптек;Баумана, 56
56.822448;60.630493;Живика;сеть аптек;Тверитина, 19
56.74478;60.614133;ВитаЭкспресс;сеть аптек;Бисертская, 26, 1 этаж
56.822447;60.635575;Фармленд;сеть аптек;Мичурина, 210
56.834947;60.609617;КЛАССИКА;сеть аптек;Малышева, 64
56.827143;60.601403;Живика;сеть аптек;Куйбышева, 57, 1 этаж
56.800768;60.629303;ВитаЭкспресс;сеть аптек;Белинского, 218/1
56.796457;60.613747;Фармленд;сеть аптек;Ботаника Молл, Академика Шварца, 1, 1 этаж
56.837342;60.558045;КЛАССИКА;сеть аптек;Татищева, 60
56.788572;60.515689;Живика;сеть аптек;Павла Шаманова, 21, 1 этаж
56.826004;60.589814;ВитаЭкспресс;сеть аптек;Куйбышева, 21, 1 этаж
56.892563;60.572442;Фармленд;сеть аптек;Культуры, 44, 1 этаж
56.884852;60.581804;КЛАССИКА;сеть аптек;Машиностроителей, 33, 1 этаж
56.820163;60.637376;Живика;сеть аптек;Мичурина, 235, 1 этаж
56.815789;60.58928;ВитаЭкспресс;сеть аптек;Большакова, 159
56.82228;60.577595;Фармленд;сеть аптек;Пальмиро Тольятти, 28а, 1 этаж
56.69145;60.836258;КЛАССИКА;сеть аптек;1 Мая, 63, 1 этаж
56.844799;60.578035;Живика;сеть аптек;Папанина, 7, 1 этаж
56.907563;60.613788;ВитаЭкспресс;сеть аптек;Космонавтов проспект, 90, 1 этаж
56.753037;60.696389;Фармленд;сеть аптек;Грибоедова, 12, 1 этаж
56.788513;60.529393;КЛАССИКА;сеть аптек;Краснолесья, 93, 1 этаж
56.792694;60.618879;Живика;сеть аптек;Родонитовая, 5, 1 этаж
56.824648;60.625597;ВитаЭкспресс;сеть аптек;Декабристов, 31, 1 этаж
56.870929;60.538167;Фармленд;сеть аптек;Таватуйская, 14, 1 этаж
56.857317;60.601502;КЛАССИКА;сеть аптек;Невьянский переулок, 1, 1 этаж
56.761834;60.611785;Живика;сеть аптек;Селькоровская, 60, 1 этаж
56.898559;60.592621;ВитаЭкспресс;сеть аптек;ТЦ Октябрь, Уральских Рабочих, 54, 1 этаж
56.860682;60.552174;Фармленд;сеть аптек;Бебеля, 136
56.824138;60.61729;Живика;сеть аптек;Белинского, 84, 1 этаж
56.81443;60.614356;ВитаЭкспресс;сеть аптек;Чапаева, 30, 1 этаж
56.88599;60.573963;Фармленд;сеть аптек;Суворовский переулок, 3, 1 этаж
56.800997;60.613189;Живика;сеть аптек;8 Марта, 179а, 1 этаж
56.788728;60.528932;ВитаЭкспресс;сеть аптек;Анатолия Мехренцева, 32, 1 этаж
56.884377;60.569359;Фармленд;сеть аптек;Машиностроителей, 20, 1 этаж
56.829718;60.643203;Живика;сеть аптек;Куйбышева, 86/1, 1 этаж
56.891928;60.629013;ВитаЭкспресс;сеть аптек;Баумана, 26, 1 этаж
56.788334;60.648999;Фармленд;сеть аптек;ТРК Глобус, Щербакова, 4, 1 этаж
56.795253;60.576973;Живика;сеть аптек;Амундсена, 64, 1 этаж
56.848533;60.616433;ВитаЭкспресс;сеть аптек;Шевченко, 8, 1 этаж
56.872102;60.5463;Фармленд;сеть аптек;Пехотинцев, 4 к1, 1 этаж
56.826025;60.590023;Живика;сеть аптек;Куйбышева, 21
56.829912;60.567821;ВитаЭкспресс;сеть аптек;Крауля, 6, 1 этаж
56.8511;60.594442;Фармленд;сеть аптек;Челюскинцев, 62, 1 этаж
56.75396;60.700919;Живика;сеть аптек;Грибоедова, 20, 1 этаж
56.902643;60.603056;ВитаЭкспресс;сеть аптек;Индустрии, 58
56.902959;60.612673;Фармленд;сеть аптек;Космонавтов проспект, 45а, 1 этаж
56.828433;60.664562;Живика;сеть аптек;Байкальская, 23, 1 этаж
56.822036;60.577117;ВитаЭкспресс;сеть аптек;Пальмиро Тольятти, 28а, 1 этаж
56.870534;60.548871;Фармленд;сеть аптек;Бебеля, 125, 1 этаж
56.838488;60.621429;Живика;сеть аптек;Луначарского, 133, 1 этаж
56.841948;60.645321;ВитаЭкспресс;сеть аптек;Ленина проспект, 70, 1 этаж
56.841658;60.675924;Фармленд;сеть аптек;Владимира Высоцкого, 12, 1 этаж
56.790742;60.518898;Живика;сеть аптек;Вильгельма де Геннина, 37, 1 этаж
56.856939;60.629075;ВитаЭкспресс;сеть аптек;Уральская, 58 к2, 1 этаж
56.83161;60.693524;Фармленд;сеть аптек;40-летия Комсомола, 14
56.862316;60.639118;Живика;сеть аптек;Сулимова, 38, 1 этаж
56.829135;60.624266;ВитаЭкспресс;сеть аптек;Луначарского, 210, 1 этаж
56.79711;60.581772;Фармленд;сеть аптек;Экомолл Гранат, Амундсена, 63, 1 этаж
56.826178;60.636437;Живика;сеть аптек;Декабристов, 4, 1 этаж
56.835948;60.582914;ВитаЭкспресс;сеть аптек;Ленина проспект, 2
56.823702;60.650602;Фармленд;сеть аптек;ТЦ Гагарин, Сибирский тракт, 8н, 1 этаж
56.80485;60.559744;Живика;сеть аптек;Академика Бардина, 25/2, 1 этаж
56.900923;60.595291;ВитаЭкспресс;сеть аптек;Победы, 42, 1 этаж
56.812803;60.59642;Фармленд;сеть аптек;Фрунзе, 96Б, 1 этаж, супермаркет Минимарт
56.854167;60.635222;Живика;сеть аптек;Уральская, 70, 1 этаж
56.844131;60.630575;ВитаЭкспресс;сеть аптек;Первомайская, 63, 1 этаж
56.914252;59.930688;Фармленд;сеть аптек;Ленина, 41, гипермаркет Мегамарт
56.818053;60.565641;Живика;сеть аптек;Белореченская, 17 к1, 1 этаж
56.91337;60.82282;ВитаЭкспресс;сеть аптек;Спортивная, 8
56.795885;60.580605;Фармленд;сеть аптек;ТЦ КИТ, Амундсена, 65, 1 этаж
56.833421;60.592011;Живика;сеть аптек;Хохрякова, 28, 1 этаж
56.820723;60.567521;ВитаЭкспресс;сеть аптек;Белореченская, 14
56.828557;60.625157;Фармленд;сеть аптек;Луначарского, 205, 2 этаж
56.905471;60.614287;Живика;сеть аптек;Космонавтов проспект, 80
56.83539;60.592817;ВитаЭкспресс;сеть аптек;Попова, 10, 1 этаж
56.963291;60.608809;Фармленд;сеть аптек;Петрова, 57, 1 этаж
56.896719;60.606078;Живика;сеть аптек;Ильича, 59, 1 этаж
56.90675;60.590231;ВитаЭкспресс;сеть аптек;Бакинских Комиссаров, 66
56.811751;60.599602;Фармленд;сеть аптек;Сурикова, 28, 1 этаж
56.893602;60.612243;Живика;сеть аптек;Победы, 5, 1 этаж
56.884495;60.570407;ВитаЭкспресс;сеть аптек;Машиностроителей, 18, 1 этаж
56.792823;60.520074;Фармленд;сеть аптек;ТРЦ Академический, Краснолесья, 133, 1 этаж
56.980424;60.565791;Живика;сеть аптек;Кривоусова, 34, 1 этаж
56.908793;60.600124;ВитаЭкспресс;сеть аптек;Новаторов, 8в, 1 этаж
56.827935;60.542618;Живика;сеть аптек;Викулова, 46/1, 1 этаж
56.870239;60.548942;ВитаЭкспресс;сеть аптек;Бебеля, 125, 1 этаж
56.843013;60.639952;Живика;сеть аптек;Ленина проспект, 95, 1 этаж
56.824386;60.625944;ВитаЭкспресс;сеть аптек;Луначарского, 218
56.791274;60.524368;Живика;сеть аптек;Краснолесья, 123
56.890773;60.570171;ВитаЭкспресс;сеть аптек;Донбасская, 8
56.866024;60.53438;Живика;сеть аптек;Надеждинская, 8, 1 этаж
56.991954;60.474971;ВитаЭкспресс;сеть аптек;Советская, 28, 1 этаж
56.857123;60.654105;Живика;сеть аптек;Комсомольская, 1, 1 этаж
56.804809;60.625556;Живика;сеть аптек;Белинского, 198, 1 этаж
56.791687;60.63039;Живика;сеть аптек;Тбилисский бульвар, 17, 1 этаж
56.782184;60.607132;Живика;сеть аптек;Военная, 6, 1 этаж
56.792669;60.521752;Живика;сеть аптек;Вильгельма де Геннина, 31
56.753645;60.622509;Живика;сеть аптек;Бисертская, 133, 1 этаж
56.815964;60.590857;Живика;сеть аптек;Большакова, 155, 1 этаж
56.868585;60.527411;Живика;сеть аптек;Техническая, 48, 1 этаж
56.897618;60.627783;Живика;сеть аптек;Красных Командиров, 27, 1 этаж
56.801209;60.630977;Живика;сеть аптек;Саввы Белых, 3, 1 этаж
56.75808;60.819039;Живика;сеть аптек;Бахчиванджи, 16, 1 этаж
56.886875;60.61628;Живика;сеть аптек;Краснофлотцев, 1а, 1 этаж
56.796869;60.582743;Живика;сеть аптек;Денисова-Уральского бульвар, 16, 1 этаж
56.822338;60.573061;Живика;сеть аптек;Посадская, 31, 1 этаж
56.809311;60.615152;Живика;сеть аптек;Щорса, 64, 1 этаж
56.885014;60.576807;Живика;сеть аптек;Машиностроителей, 12, 1 этаж
56.841033;60.660623;Живика;сеть аптек;Малышева, 146, 1 этаж
56.8635;60.653466;Живика;сеть аптек;Данилы Зверева, 16, 1 этаж
56.841605;60.620205;Живика;сеть аптек;Ленина проспект, 69/3, 1 этаж
56.833642;60.693625;Живика;сеть аптек;40-летия Комсомола, 10
56.82131;60.569598;Живика;сеть аптек;Белореченская, 7, 1 этаж
56.841088;60.656278;Живика;сеть аптек;Софьи Ковалевской, 1
56.812477;60.608294;Живика;сеть аптек;8 Марта, 120, 1 этаж
56.908143;60.824165;Живика;сеть аптек;Шиловская, 19, 1 этаж
56.900818;60.59382;Живика;сеть аптек;Победы, 53
56.97692;60.56204;Живика;сеть аптек;Успенский проспект, 44, 1 этаж
56.823291;60.50471;Живика;сеть аптек;МеГа, Металлургов, 87, 1 этаж
56.809201;60.548194;Живика;сеть аптек;Академика Бардина, 1, 1 этаж
56.850521;60.56315;Живика;сеть аптек;Опалихинская, 21
56.776029;60.610188;Живика;сеть аптек;Сухоложская, 4
56.821043;60.576736;Живика;сеть аптек;Посадская, 45, 1 этаж
56.90626;60.613;Живика;сеть аптек;Космонавтов проспект, 53
56.88997;60.632472;Живика;сеть аптек;Старых Большевиков, 12, 1 этаж
56.8668;60.531743;Живика;сеть аптек;Техническая, 36, 1 этаж
56.976684;60.571718;Живика;сеть аптек;Кривоусова, 20, 1 этаж
56.804488;60.576832;Живика;сеть аптек;Волгоградская, 45, 1 этаж
56.812632;60.601427;Живика;сеть аптек;Фрунзе, 67
56.913258;60.822968;Живика;сеть аптек;Спортивная, 8, 1 этаж
56.804575;60.626574;Живика;сеть аптек;Белинского, 163г, 1 этаж
56.861257;60.551889;Живика;сеть аптек;Бебеля, 138, 1 этаж
56.855081;60.654009;Живика;сеть аптек;Комсомольская, 6, 1 этаж
56.799003;60.56458;Живика;сеть аптек;Чкалова, 139
56.807165;60.543934;Живика;сеть аптек;Серафимы Дерябиной, 51, 1 этаж
56.779163;60.608511;Живика;сеть аптек;Братская, 4, 1 этаж
56.813296;60.606202;Живика;сеть аптек;Фрунзе, 62, 1 этаж
56.859493;60.638736;Живика;сеть аптек;Июльская, 25, 1 этаж
56.894792;60.626944;Живика;сеть аптек;Энтузиастов, 27, 1 этаж
56.886029;60.574537;Живика;сеть аптек;Суворовский переулок, 3, 1 этаж
56.812532;60.583797;Живика;сеть аптек;Фурманова, 127, 1 этаж
56.895016;60.638852;Живика;сеть аптек;Черноморский переулок, 2, 1 этаж
56.829014;60.624277;Живика;сеть аптек;Луначарского, 210Б
56.789172;60.777449;Живика;сеть аптек;Латвийская, 18
56.862539;60.544788;Живика;сеть аптек;Техническая, 14, 1 этаж
56.753227;60.708435;Живика;сеть аптек;Инженерная, 31, 1 этаж
56.831766;60.538591;Живика;сеть аптек;Крауля, 82, 1 этаж
56.755364;60.707699;Живика;сеть аптек;Грибоедова, 28, 1 этаж
56.830604;60.624423;Живика;сеть аптек;Луначарского, 189
56.788674;60.778678;Живика;сеть аптек;Латвийская, 16, 1 этаж
56.855872;60.629016;Живика;сеть аптек;Пионеров, 12/3, 1 этаж
56.984426;60.471543;Живика;сеть аптек;Парижской Коммуны, 10, 1 этаж
56.869281;60.551862;Живика;сеть аптек;Бебеля, 160, 1 этаж
56.90771;60.808622;Живика;сеть аптек;Восточная, 9, 1 этаж
56.759359;60.819193;Живика;сеть аптек;Бахчиванджи, 14
56.766926;60.707805;Живика;сеть аптек;Южногорская, 9, 1 этаж
56.905225;60.633399;Живика;сеть аптек;Таганская, 56, 1 этаж
56.755017;60.69885;Живика;сеть аптек;Бородина, 24
56.904881;60.823221;Живика;сеть аптек;Гагарина, 4, 1 этаж
56.989366;60.474344;Живика;сеть аптек;Куйбышева, 11, 1 этаж
56.905287;59.953548;Живика;сеть аптек;Ильича проспект, 29а, 1 этаж
56.908775;60.818864;Живика;сеть аптек;Анучина, 3
56.821333;60.636065;Живика;сеть аптек;Мичурина, 212, 1 этаж
56.795903;59.905492;Живика;сеть аптек;Максима Горького, 46, 1 этаж
56.911206;59.948931;Живика;сеть аптек;Ленина, 17, 1 этаж
56.89677;59.941323;Живика;сеть аптек;Ватутина, 23, 1 этаж
56.697935;60.087812;Живика;сеть аптек;Калинина, 29/2, 1 этаж
56.906386;59.961487;Живика;сеть аптек;Вайнера, 7, 1 этаж
56.890924;59.887927;Живика;сеть аптек;Ильича, 27, 1 этаж
56.904208;59.950123;Живика;сеть аптек;Ильича проспект, 12, 1 этаж
56.90384;59.952637;Живика;сеть аптек;Трубников, 29, 1 этаж
56.910505;59.932921;Живика;сеть аптек;Космонавтов проспект, 22, 1 этаж
56.803229;59.927805;Живика;сеть аптек;Карла Либкнехта, 31, 1 этаж
56.797848;59.915395;Живика;сеть аптек;Цветников, 40, 1 этаж
56.904617;59.941255;Живика;сеть аптек;Ватутина, 39, 1 этаж, вход с ул. Ватутина
56.812115;60.557541;Городская клиническая больница №40;;Волгоградская, 189
56.894919;60.482253;Детская городская клиническая больница №9;;Решётская, 51/1, 1 этаж
56.810268;60.560932;Свердловская областная клиническая больница №1;;Волгоградская, 185
56.835107;60.581666;Екатеринбургский медицинский научный центр профилактики и охраны здоровья рабочих промышленных предприятий;;Московская, 12
56.887376;60.632166;Центральная городская больница №23;;Старых Большевиков, 9 лит В
56.851407;60.584922;РЖД-Медицина;дорожная клиническая больница;Гражданская, 9
56.824365;60.629477;Центральная городская клиническая больница №1;;Декабристов, 15а
56.832321;60.55417;Новая больница;Медицинское объединение;Заводская, 29
56.904152;60.58036;Детская городская больница №15;;Народного Фронта, 21, 1 этаж
56.807597;60.540489;Центральная городская больница №6;;Серафимы Дерябиной, 34а
56.887715;60.57164;Городская клиническая больница №14;;Медицинский переулок, 4
56.844686;60.583556;Центральная городская больница №2 им. А.А. Миславского;;Челюскинцев, 5
56.868333;60.639824;Центральная городская больница №7;;Вилонова, 33 к2
56.838149;60.55756;Детская городская клиническая больница №11;;Нагорная, 48
56.85526;60.65534;Екатеринбургский клинический перинатальный центр;;Комсомольская, 9
56.788222;60.776731;Городская травматологическая больница №36;;Центральная, 2
56.763382;60.709366;Центральная городская больница №20;;Дагестанская, 3
56.809264;60.535744;Областная детская клиническая больница №1;;Серафимы Дерябиной, 32, 5 этаж
56.784266;60.601279;Центральная городская клиническая больница №24;;Рижский переулок, 16
56.841182;60.599853;Областная больница №2;;Рабочей Молодёжи Набережная, 3
56.781821;60.601232;Детская городская больница №8;;Военная, 20
56.818491;60.597576;Уральский институт кардиологии;;8 Марта, 78а/1
56.851875;60.603311;Центральная городская больница №3;;Братьев Быковых, 16/1
56.904291;59.92431;Городская больница №2;;Емлина, 22
56.978649;60.564429;Верхнепышминская центральная городская больница им. П.Д. Бородина;;Чайковского, 32
56.838149;60.55756;Городской детский кардиоревматологический центр;Детская городская больница №11;Нагорная, 48, 2 этаж
56.894186;59.935824;Детская городская больница;;Гагарина, 38а
56.892975;60.56507;Уральский научно-исследовательский институт фтизиопульмонологии;;22 Партсъезда, 50
56.907319;60.82713;Берёзовская центральная городская больница;;Шиловская, 28/4
56.714485;60.764015;Большеистокская участковая больница;;Ленина, 159
56.892264;59.96914;Городская больница №4;;Мамина-Сибиряка, 2а
56.697726;60.862771;Арамильская городская больница;;Садовая, 10
56.890697;59.876371;Городская больница №3;;Огнеупорщиков, 38
56.897037;59.93314;Первоуральская городская больница;;Металлургов, 3а
56.985903;60.473928;Верхнепышминская центральная городская больница им. П.Д. Бородина;филиал в г. Среднеуральске;Парижской Коммуны, 1
56.804669;60.505229;Свердловский областной онкологический диспансер;;Соболева, 29/4, 3 этаж
56.837802;60.556977;Отделение восстановительного лечения;Детская городская больница №11;Нагорная, 48
56.794892;59.904147;Ревдинская городская больница;;Олега Кошевого, 4
56.849395;60.563664;Детский неврологический центр;Детская городская больница №11;Опалихинская, 17, 1 этаж
56.690136;60.085123;Дегтярская городская больница;;Головина, 9а
56.810579;60.556006;Городская клиническая больница №40;;Волгоградская, 189/8
56.851171;60.602796;Детская городская клиническая больница №9;;Мельковская, 2Б, 1 этаж
56.810268;60.560932;Свердловская областная клиническая больница №1;;Волгоградская, 185
56.885676;60.632478;Центральная городская больница №23;;Старых Большевиков, 9 лит М
56.867063;60.533955;РЖД-Медицина;дорожная клиническая больница;Надеждинская, 9а
56.824208;60.63072;Центральная городская клиническая больница №1;;Сони Морозовой, 203
56.890827;60.62079;Детская городская больница №15;;Бабушкина, 24а
56.806459;60.537377;Центральная городская больница №6;;Серафимы Дерябиной, 38а
56.887112;60.570706;Городская клиническая больница №14;;Медицинский переулок, 2
56.842522;60.581294;Центральная городская больница №2 им. А.А. Миславского;;Челюскинцев, 3
56.86798;60.638391;Центральная городская больница №7;;Вилонова, 33 к1
56.837802;60.556977;Детская городская клиническая больница №11;;Нагорная, 48, 1 этаж
56.853976;60.657567;Екатеринбургский клинический перинатальный центр;;Комвузовская, 3
56.788222;60.776731;Городская травматологическая больница №36;;Центральная, 2, 2 этаж
56.763434;60.707237;Центральная городская больница №20;;Дагестанская, 3/2
56.809264;60.535744;Областная детская клиническая больница №1;;Серафимы Дерябиной, 32
56.784193;60.600812;Центральная городская клиническая больница №24;;Рижский переулок, 16
56.841182;60.599853;Областная больница №2;;Рабочей Молодёжи Набережная, 3
56.781821;60.601232;Детская городская больница №8;;Военная, 20
56.818491;60.597576;Уральский институт кардиологии;;8 Марта, 78а/1
56.852039;60.603708;Центральная городская больница №3;;Братьев Быковых, 16/1, 1 этаж
56.986174;60.575885;Верхнепышминская центральная городская больница им. П.Д. Бородина;;Балтымская, 19, 1, 2 этаж
56.895824;59.938212;Детская городская больница;;Медиков, 8
56.905574;60.827002;Берёзовская центральная городская больница;;Шиловская, 28/8
56.896672;59.935977;Первоуральская городская больница;;Медиков, 3а/4
56.985903;60.473928;Верхнепышминская центральная городская больница им. П.Д. Бородина;филиал в г. Среднеуральске;Парижской Коммуны, 1, 2 этаж
56.849667;60.56387;Отделение восстановительного лечения;Детская городская больница №11;Опалихинская, 17
56.808683;59.925968;Ревдинская городская больница;;Энгельса, 35
56.811149;60.553028;Городская клиническая больница №40;;Волгоградская, 189/7
56.896106;60.483929;Детская городская клиническая больница №9;;Решётская, 51/3
56.807152;60.556509;Свердловская областная клиническая больница №1;;Академика Бардина, 14, 1 этаж
56.887376;60.632166;Центральная городская больница №23;;Старых Большевиков, 9, 3 этаж, правое крыло
56.889772;60.500369;РЖД-Медицина;дорожная клиническая больница;Байдукова, 63
56.824624;60.630756;Центральная городская клиническая больница №1;;Декабристов, 15, 5 этаж
56.902017;60.593154;Детская городская больница №15;;Победы, 70в
56.807597;60.540489;Центральная городская больница №6;;Серафимы Дерябиной, 34а, 1 этаж
56.888211;60.573832;Городская клиническая больница №14;;22 Партсъезда, 15а
56.842592;60.580592;Центральная городская больница №2 им. А.А. Миславского;;Северный переулок, 2 к1
56.867642;60.642429;Центральная городская больница №7;;Вилонова, 33 к4
56.838149;60.55756;Детская городская клиническая больница №11;;Нагорная, 48
56.8022;60.553923;Екатеринбургский клинический перинатальный центр;;Начдива Онуфриева, 32а
56.788222;60.776731;Городская травматологическая больница №36;;Центральная, 2
56.756827;60.698417;Центральная городская больница №20;;Профсоюзная, 59, 1 этаж
56.808774;60.538843;Областная детская клиническая больница №1;;Серафимы Дерябиной, 32/3, 2 этаж
56.783116;60.601265;Центральная городская клиническая больница №24;;Рижский переулок, 16/2, 5 этаж
56.841182;60.599853;Областная больница №2;;Рабочей Молодёжи Набережная, 3, 2 этаж
56.781821;60.601232;Детская городская больница №8;;Военная, 20
56.818491;60.597576;Уральский институт кардиологии;;8 Марта, 78а/1
56.869281;60.551862;Центральная городская больница №3;;Бебеля, 160
56.978649;60.564429;Верхнепышминская центральная городская больница им. П.Д. Бородина;;Чайковского, 32, 3 этаж
56.895824;59.938212;Детская городская больница;;Медиков, 8
56.907374;60.82604;Берёзовская центральная городская больница;;Шиловская, 28/1
56.892264;59.96914;Первоуральская городская больница;;Мамина-Сибиряка, 2а
56.987016;60.473312;Верхнепышминская центральная городская больница им. П.Д. Бородина;филиал в г. Среднеуральске;Лермонтова, 3
56.794892;59.904147;Ревдинская городская больница;;Олега Кошевого, 4
56.8126;60.554223;Городская клиническая больница №40;;Волгоградская, 191
56.894919;60.482253;Детская городская клиническая больница №9;;Решётская, 51/1
56.810268;60.560932;Свердловская областная клиническая больница №1;;Волгоградская, 185
56.887376;60.632166;Центральная городская больница №23;;Старых Большевиков, 9, 2 этаж
56.867063;60.533955;РЖД-Медицина;дорожная клиническая больница;Надеждинская, 9а
56.824624;60.630756;Центральная городская клиническая больница №1;;Декабристов, 15
56.895782;60.618339;Детская городская больница №15;;Стачек, 55а, 1 этаж
56.807597;60.540489;Центральная городская больница №6;;Серафимы Дерябиной, 34а, 5 этаж
56.886022;60.570185;Городская клиническая больница №14;;Суворовский переулок, 6
56.842689;60.579811;Центральная городская больница №2 им. А.А. Миславского;;Северный переулок, 2
56.838149;60.55756;Детская городская клиническая больница №11;;Нагорная, 48, 2 этаж
56.788222;60.776731;Городская травматологическая больница №36;;Центральная, 2
56.763382;60.709366;Центральная городская больница №20;;Дагестанская, 3
56.809532;60.535977;Областная детская клиническая больница №1;;Серафимы Дерябиной, 32, 1 этаж
56.783116;60.601265;Центральная городская клиническая больница №24;;Рижский переулок, 16/2
56.781821;60.601232;Детская городская больница №8;;Военная, 20
56.818491;60.597576;Уральский институт кардиологии;;8 Марта, 78а/1
56.853263;60.57978;Центральная городская больница №3;;Машинистов, 6
56.986533;60.577594;Верхнепышминская центральная городская больница им. П.Д. Бородина;;Балтымская, 19а, 1 этаж
56.895824;59.938212;Детская городская больница;;Медиков, 8
56.90685;60.825008;Берёзовская центральная городская больница;;Шиловская, 28/7
56.897037;59.93314;Первоуральская городская больница;;Металлургов, 3а, 1 этаж
56.985317;60.474752;Верхнепышминская центральная городская больница им. П.Д. Бородина;филиал в г. Среднеуральске;Парижской Коммуны, 3, 1 этаж
56.794892;59.904147;Ревдинская городская больница;;Олега Кошевого, 4
56.81215;60.552532;Городская клиническая больница №40;;Волгоградская, 189/5
56.894919;60.482253;Детская городская клиническая больница №9;;Решётская, 51/1
56.810268;60.560932;Свердловская областная клиническая больница №1;;Волгоградская, 185
56.887376;60.632166;Центральная городская больница №23;;Старых Большевиков, 9, 3 этаж
56.824624;60.630756;Центральная городская клиническая больница №1;;Декабристов, 15
56.899205;60.598014;Детская городская больница №15;;Победы, 43
56.807597;60.540489;Центральная городская больница №6;;Серафимы Дерябиной, 34а, 2 этаж
56.888211;60.573832;Городская клиническая больница №14;;22 Партсъезда, 15а
56.795648;60.511089;Центральная городская больница №2 им. А.А. Миславского;;Рябинина, 21, 1 этаж
56.838149;60.55756;Детская городская клиническая больница №11;;Нагорная, 48, 4 этаж
56.788222;60.776731;Городская травматологическая больница №36;;Центральная, 2
56.763382;60.709366;Центральная городская больница №20;;Дагестанская, 3
56.809264;60.535744;Областная детская клиническая больница №1;;Серафимы Дерябиной, 32, 5 этаж
56.783116;60.601265;Центральная городская клиническая больница №24;;Рижский переулок, 16/2, 4 этаж
56.818491;60.597576;Уральский институт кардиологии;;8 Марта, 78а/1
56.853263;60.57978;Центральная городская больница №3;;Машинистов, 6
56.98635;60.576404;Верхнепышминская центральная городская больница им. П.Д. Бородина;;Балтымская, 19
56.907792;60.826686;Берёзовская центральная городская больница;;Шиловская, 28/2
56.892264;59.96914;Первоуральская городская больница;;Мамина-Сибиряка, 2а, 2 этаж
56.986992;60.473525;Верхнепышминская центральная городская больница им. П.Д. Бородина;филиал в г. Среднеуральске;Лермонтова, 3, 1 этаж
56.794892;59.904147;Ревдинская городская больница;;Олега Кошевого, 4
56.8126;60.554223;Городская клиническая больница №40;;Волгоградская, 189/3
56.894919;60.482253;Детская городская клиническая больница №9;;Решётская, 51/1, 1 этаж
56.810268;60.560932;Свердловская областная клиническая больница №1;;Волгоградская, 185
56.824624;60.630756;Центральная городская клиническая больница №1;;Декабристов, 15
56.895777;60.618417;Детская городская больница №15;;Стачек, 55а, 1 этаж
56.807597;60.540489;Центральная городская больница №6;;Серафимы Дерябиной, 34а, 1 этаж
56.887112;60.570706;Городская клиническая больница №14;;Медицинский переулок, 2, 5 этаж
56.842689;60.579811;Центральная городская больница №2 им. А.А. Миславского;;Северный переулок, 2, 3 этаж
56.838149;60.55756;Детская городская клиническая больница №11;;Нагорная, 48
56.788222;60.776731;Городская травматологическая больница №36;;Центральная, 2
56.763382;60.709366;Центральная городская больница №20;;Дагестанская, 3
56.807878;60.535939;Областная детская клиническая больница №1;;Серафимы Дерябиной, 32/1 к А, 1 этаж
56.783116;60.601265;Центральная городская клиническая больница №24;;Рижский переулок, 16/2, 3 этаж
56.818491;60.597576;Уральский институт кардиологии;;8 Марта, 78а/1
56.906773;60.826218;Берёзовская центральная городская больница;;Шиловская, 28/3
56.897037;59.93314;Первоуральская городская больница;;Металлургов, 3а, 5 этаж
56.794892;59.904147;Ревдинская городская больница;;Олега Кошевого, 4
56.894919;60.482253;Детская городская клиническая больница №9;;Решётская, 51/1, 2 этаж
56.810268;60.560932;Свердловская областная клиническая больница №1;;Волгоградская, 185
56.824624;60.630756;Центральная городская клиническая больница №1;;Декабристов, 15
56.807597;60.540489;Центральная городская больница №6;;Серафимы Дерябиной, 34а, 2 этаж
56.888211;60.573832;Городская клиническая больница №14;;22 Партсъезда, 15а, 1 этаж
56.842689;60.579811;Центральная городская больница №2 им. А.А. Миславского;;Северный переулок, 2
56.838149;60.55756;Детская городская клиническая больница №11;;Нагорная, 48, 2 этаж
56.788222;60.776731;Городская травматологическая больница №36;;Центральная, 2
56.763382;60.709366;Центральная городская больница №20;;Дагестанская, 3
56.809264;60.535744;Областная детская клиническая больница №1;;Серафимы Дерябиной, 32, 4 этаж
56.783116;60.601265;Центральная городская клиническая больница №24;;Рижский переулок, 16/2, 2 этаж
56.907792;60.826686;Берёзовская центральная городская больница;;Шиловская, 28/2
56.892264;59.96914;Первоуральская городская больница;;Мамина-Сибиряка, 2а, 1 этаж
56.794293;59.904003;Ревдинская городская больница;;Олега Кошевого, 4/1
56.894919;60.482253;Детская городская клиническая больница №9;;Решётская, 51/1
56.810268;60.560932;Свердловская областная клиническая больница №1;;Волгоградская, 185
56.824624;60.630756;Центральная городская клиническая больница №1;;Декабристов, 15, 4 этаж
56.807597;60.540489;Центральная городская больница №6;;Серафимы Дерябиной, 34а, 3 этаж
56.888211;60.573832;Городская клиническая больница №14;;22 Партсъезда, 15а, 2 этаж
56.842689;60.579811;Центральная городская больница №2 им. А.А. Миславского;;Северный переулок, 2, 2 этаж
56.838149;60.55756;Детская городская клиническая больница №11;;Нагорная, 48, 2 этаж
56.788222;60.776731;Городская травматологическая больница №36;;Центральная, 2
56.763382;60.709366;Центральная городская больница №20;;Дагестанская, 3
56.808357;60.536683;Областная детская клиническая больница №1;;Серафимы Дерябиной, 32/1 к А, 4 этаж
56.783116;60.601265;Центральная городская клиническая больница №24;;Рижский переулок, 16/2, 2 этаж
56.906107;60.827329;Берёзовская центральная городская больница;;Шиловская, 28/5, 2 этаж
56.897157;59.937178;Первоуральская городская больница;;Медиков, 3а/5
56.794892;59.904147;Ревдинская городская больница;;Олега Кошевого, 4
56.894919;60.482253;Детская городская клиническая больница №9;;Решётская, 51/1, 4 этаж
56.810268;60.560932;Свердловская областная клиническая больница №1;;Волгоградская, 185
56.824624;60.630756;Центральная городская клиническая больница №1;;Декабристов, 15
56.807597;60.540489;Центральная городская больница №6;;Серафимы Дерябиной, 34а, 5 этаж
56.887112;60.570706;Городская клиническая больница №14;;Медицинский переулок, 2, 6 этаж
56.763382;60.709366;Центральная городская больница №20;;Дагестанская, 3
56.809041;60.537729;Областная детская клиническая больница №1;;Серафимы Дерябиной, 32/1 к Б, 4 этаж
56.783116;60.601265;Центральная городская клиническая больница №24;;Рижский переулок, 16/2
56.906107;60.827329;Берёзовская центральная городская больница;;Шиловская, 28/5
56.897037;59.93314;Первоуральская городская больница;;Металлургов, 3а, 2 этаж
56.794892;59.904147;Ревдинская городская больница;;Олега Кошевого, 4, 1 этаж
56.894919;60.482253;Детская городская клиническая больница №9;;Решётская, 51/1, 1 этаж
56.810268;60.560932;Свердловская областная клиническая больница №1;;Волгоградская, 185
56.807597;60.540489;Центральная городская больница №6;;Серафимы Дерябиной, 34а, 1 этаж
56.887112;60.570706;Городская клиническая больница №14;;Медицинский переулок, 2, 3 этаж
56.763382;60.709366;Центральная городская больница №20;;Дагестанская, 3
56.809264;60.535744;Областная детская клиническая больница №1;;Серафимы Дерябиной, 32, 4 этаж
56.907374;60.82604;Берёзовская центральная городская больница;;Шиловская, 28/1
56.890697;59.876371;Первоуральская городская больница;;Огнеупорщиков, 38, 4, 5 этаж
56.794892;59.904147;Ревдинская городская больница;;Олега Кошевого, 4, 2 этаж
56.894919;60.482253;Детская городская клиническая больница №9;;Решётская, 51/1, 1, 2 этаж
56.810268;60.560932;Свердловская областная клиническая больница №1;;Волгоградская, 185
56.807597;60.540489;Центральная городская больница №6;;Серафимы Дерябиной, 34а, 4 этаж
56.887112;60.570706;Городская клиническая больница №14;;Медицинский переулок, 2, 2 этаж
56.809264;60.535744;Областная детская клиническая больница №1;;Серафимы Дерябиной, 32, 1 этаж
56.906773;60.826218;Берёзовская центральная городская больница;;Шиловская, 28/3
56.890697;59.876371;Первоуральская городская больница;;Огнеупорщиков, 38
56.794245;59.904368;Ревдинская городская больница;;Олега Кошевого, 4/1
56.894919;60.482253;Детская городская клиническая больница №9;;Решётская, 51/1
56.810268;60.560932;Свердловская областная клиническая больница №1;;Волгоградская, 185
56.807597;60.540489;Центральная городская больница №6;;Серафимы Дерябиной, 34а, 4 этаж
56.887112;60.570706;Городская клиническая больница №14;;Медицинский переулок, 2, 130 кабинет, 1 этаж
56.808774;60.538843;Областная детская клиническая больница №1;;Серафимы Дерябиной, 32/3, 3 этаж
56.907792;60.826686;Берёзовская центральная городская больница;;Шиловская, 28/2
56.896744;59.93584;Первоуральская городская больница;;Металлургов, 3а, 3 этаж
56.794892;59.904147;Ревдинская городская больница;;Олега Кошевого, 4
56.894919;60.482253;Детская городская клиническая больница №9;;Решётская, 51/1, 2, 3 этаж
56.810268;60.560932;Свердловская областная клиническая больница №1;;Волгоградская, 185
56.807597;60.540489;Центральная городская больница №6;;Серафимы Дерябиной, 34а, 1 этаж
56.887112;60.570706;Городская клиническая больница №14;;Медицинский переулок, 2, 4 этаж
56.809264;60.535744;Областная детская клиническая больница №1;;Серафимы Дерябиной, 32, 3 этаж
56.90685;60.825008;Берёзовская центральная городская больница;;Шиловская, 28/7
56.897037;59.93314;Первоуральская городская больница;;Металлургов, 3а, 6 этаж
56.794892;59.904147;Ревдинская городская больница;;Олега Кошевого, 4
56.894919;60.482253;Детская городская клиническая больница №9;;Решётская, 51/1
56.810268;60.560932;Свердловская областная клиническая больница №1;;Волгоградская, 185
56.888211;60.573832;Городская клиническая больница №14;;22 Партсъезда, 15а, 1 этаж
56.809264;60.535744;Областная детская клиническая больница №1;;Серафимы Дерябиной, 32, 3 этаж
56.907792;60.826686;Берёзовская центральная городская больница;;Шиловская, 28/2
56.890697;59.876371;Первоуральская городская больница;;Огнеупорщиков, 38
56.794892;59.904147;Ревдинская городская больница;;Олега Кошевого, 4
56.894919;60.482253;Детская городская клиническая больница №9;;Решётская, 51/1, 3 этаж
56.810268;60.560932;Свердловская областная клиническая больница №1;;Волгоградская, 185
56.809264;60.535744;Областная детская клиническая больница №1;;Серафимы Дерябиной, 32, 3 этаж
56.897157;59.937178;Первоуральская городская больница;;Медиков, 3а/5
56.810268;60.560932;Свердловская областная клиническая больница №1;;Волгоградская, 185
56.808774;60.538843;Областная детская клиническая больница №1;;Серафимы Дерябиной, 32/3, цокольный этаж
56.890697;59.876371;Первоуральская городская больница;;Огнеупорщиков, 38, 4, 5 этаж
56.810268;60.560932;Свердловская областная клиническая больница №1;;Волгоградская, 185
56.808774;60.538843;Областная детская клиническая больница №1;;Серафимы Дерябиной, 32/3, 4 этаж
56.897037;59.93314;Первоуральская городская больница;;Металлургов, 3а, 2 этаж
56.810268;60.560932;Свердловская областная клиническая больница №1;;Волгоградская, 185
56.809264;60.535744;Областная детская клиническая больница №1;;Серафимы Дерябиной, 32, 5 этаж
56.897157;59.937178;Первоуральская городская больница;;Медиков, 3а/5, Травматологическое отделение
56.810268;60.560932;Свердловская областная клиническая больница №1;;Волгоградская, 185
56.808774;60.538843;Областная детская клиническая больница №1;;Серафимы Дерябиной, 32/3, 1 этаж
56.897037;59.93314;Первоуральская городская больница;;Металлургов, 3а, 3 этаж
56.810268;60.560932;Свердловская областная клиническая больница №1;;Волгоградская, 185
56.808357;60.536683;Областная детская клиническая больница №1;;Серафимы Дерябиной, 32/1 к А, 2 этаж
56.895276;59.938186;Первоуральская городская больница;;Медиков, 9, 1 этаж
56.810268;60.560932;Свердловская областная клиническая больница №1;;Волгоградская, 185
56.809264;60.535744;Областная детская клиническая больница №1;;Серафимы Дерябиной, 32, 2 этаж
56.895276;59.938186;Первоуральская городская больница;;Медиков, 9, 2 этаж
56.810268;60.560932;Свердловская областная клиническая больница №1;;Волгоградская, 185
56.808357;60.536683;Областная детская клиническая больница №1;;Серафимы Дерябиной, 32/1 к А, 1 этаж
56.897037;59.93314;Первоуральская городская больница;;Металлургов, 3а
56.810268;60.560932;Свердловская областная клиническая больница №1;;Волгоградская, 185
56.808357;60.536683;Областная детская клиническая больница №1;;Серафимы Дерябиной, 32/1 к А, 3 этаж
56.897157;59.937178;Первоуральская городская больница;;Медиков, 3а/5
56.810268;60.560932;Свердловская областная клиническая больница №1;;Волгоградская, 185
56.809264;60.535744;Областная детская клиническая больница №1;;Серафимы Дерябиной, 32, 6 этаж
56.897157;59.937178;Первоуральская городская больница;;Медиков, 3а/5
56.810268;60.560932;Свердловская областная клиническая больница №1;;Волгоградская, 185
56.810268;60.560932;Свердловская областная клиническая больница №1;;Волгоградская, 185
56.810268;60.560932;Свердловская областная клиническая больница №1;;Волгоградская, 185
56.810268;60.560932;Свердловская областная клиническая больница №1;;Волгоградская, 185
56.810268;60.560932;Свердловская областная клиническая больница №1;;Волгоградская, 185
56.810268;60.560932;Свердловская областная клиническая больница №1;;Волгоградская, 185
56.810268;60.560932;Свердловская областная клиническая больница №1;;Волгоградская, 185
56.810268;60.560932;Свердловская областная клиническая больница №1;;Волгоградская, 185
56.801184;60.610817;Дог сити;зоомагазин;ЖК Зелёный мыс, 8 Марта, 194
56.795921;60.607301;Ника;ветеринарная клиника;8 Марта, 204/2
56.779639;60.648446;СВ-Маркет;зоомагазин;Походная, 1а, 2 офис
56.809062;60.592473;Заповедник;сеть зооцентров;Московская, 225/1, 1 этаж
56.902256;60.58282;ЭФА;ветеринарная клиника;Бакинских Комиссаров, 95, 1 этаж
56.805264;60.577351;Здоровье животных;ветеринарная клиника;Волгоградская, 86
56.818105;60.561511;Анстер;сеть зоомагазинов;Шаумяна, 100, 1 этаж
56.802651;60.603514;Ветпульс;ветеринарная клиника;Авиационная, 12
56.779758;60.675178;Рада;ветеринарная клиника;Рощинская, 50, 1 этаж
56.985363;60.554499;Ветдоктор;ветеринарная клиника;Уральских Рабочих, 44Б, цокольный этаж
56.839741;60.644638;Природа;магазин-салон;Малышева, 111а, 1 этаж
56.864169;60.530925;ЗООДОКТОР;ветеринарный центр;Миномётчиков, 30, 1 этаж
56.972761;60.578091;Живой Мир;зоомагазин;Кривоусова, 18д, 1 этаж
56.813084;60.599385;Верные друзья;;Сурикова, 24, 1 этаж
56.825835;60.638671;Кормушка;зоомагазин;Восточная, 25, 1 этаж
56.806924;60.554263;ВЕТЕРИНАР и Я;ветеринарная клиника;Академика Бардина, 11/1, цокольный этаж
56.796693;60.628933;Алмар;сеть зоомагазинов;Академика Шварца, 17е
56.835401;60.686983;Компаньон;зоомагазин;Сыромолотова, 25, 1 этаж
56.800445;60.585048;ВетФарм;;Амундсена, 53, 1 этаж
56.824998;60.567542;Компаньон;зоомагазин;Посадская, 15, 1 этаж
56.902241;59.961388;ВЕТ+;Первоуральский ветеринарный центр;Ленина, 152
56.782052;60.632229;Жужа;зоомаркет;Самолётная, 45, цокольный этаж
56.86162;60.644773;Зоодом;магазин;ТЦ Парус, Сулимова, 26, цокольный этаж
56.848434;60.599242;Белый Клык;зоомагазин;Красный переулок, 12, 1 этаж
56.856173;60.553551;ЗООВЕТ ПЛЮС;ветеринарный кабинет;Бебеля, 134, 1 этаж
56.791849;60.774465;Лайна;сеть зоомагазинов и товаров для рыбалки;Белоярская, 11а, 1 этаж
56.818034;60.618607;Инвет;ветеринарная аптека;УрГАУ, Белинского, 112а, 1 этаж
56.857499;60.630209;Зоомаркет;;Уральская, 60, 2 помещение, 1 этаж
56.830252;60.563632;Керри;магазин зоотоваров;Крауля, 10
56.858526;60.621274;Планета животных;зоомагазин;Смазчиков, 2
56.768412;60.613511;Львина;магазин товаров для животных;Санаторная, 1, 2.2 павильон, 2 этаж
56.91436;59.948235;Здоровый питомец;ветеринарная клиника;Береговая, 10а
56.7599;60.811691;zooМИР;зоомагазин;Авиаторов, 12, 1 этаж
56.840049;60.622126;ЗОО@ШОП;зоомагазин;ТЦ СИТИ-ЦЕНТР, Ленина проспект, 50, 106А офис, 1 этаж
56.806142;59.93567;Магазин товаров для животных;ИП Чулик В.В.;Клубная, 8, 2 этаж
56.975745;60.565812;Мой хвостик;зоомагазин;Успенский проспект, 38
56.82429;60.569031;Ветеринарная аптека;;Посадская, 21/2, 1 этаж
56.81843;60.618816;Заповедник;сеть зооцентров;УрГАУ, Белинского, 112а, 1 этаж
56.833198;60.562381;Дог сити;зоомагазин;Токарей, 27, цокольный этаж
56.852778;60.65622;ЭФА;ветеринарная клиника;Комсомольская, 13, 1 этаж
56.791717;60.521329;Анстер;сеть зоомагазинов;Вильгельма де Геннина, 31, 1 этаж
56.984385;60.557273;Живой Мир;зоомагазин;Уральских Рабочих, 43, 1 этаж
56.813419;60.571726;Алмар;сеть зоомагазинов;Шаумяна, 87, 1 этаж
56.783937;60.541712;ВетФарм;;Чкалова, 239, 1 этаж
56.8036;60.626847;Жужа;зоомаркет;Белинского, 210а, 1 этаж
56.885583;60.509215;Зоодом;магазин;Билимбаевская, 30, 1 этаж
56.77849;60.88028;Инвет;ветеринарная аптека;Главная, 21
56.795244;59.907955;Магазин товаров для животных;ИП Чулик В.В.;ТЦ Торговый двор, Олега Кошевого, 21а, 1 этаж
56.898059;60.600996;Заповедник;сеть зооцентров;Победы, 35, 1 этаж
56.901359;60.583026;ЭФА;ветеринарная клиника;Бакинских Комиссаров, 46
56.896132;60.615171;Анстер;сеть зоомагазинов;Космонавтов проспект, 62, 1 этаж
56.900104;60.60958;Живой Мир;зоомагазин;Восстания, 7, 1 этаж
56.792178;60.626422;Зоодом;магазин;Родонитовая, 22, 1 этаж
56.819524;60.538488;Заповедник;сеть зооцентров;Репина, 107
56.810115;60.62206;Анстер;сеть зоомагазинов;Белинского, 156/1, 1 этаж
56.980375;60.559345;Живой Мир;зоомагазин;Юбилейная, 9, 1 этаж
56.807796;60.606883;Заповедник;сеть зооцентров;Союзная, 2, 2 этаж
56.856296;60.633735;Анстер;сеть зоомагазинов;Уральская, 61а, 1 этаж
56.839816;60.679949;Заповедник;сеть зооцентров;Сыромолотова, 7, 1 этаж
56.839741;60.594061;Анстер;сеть зоомагазинов;Антона Валека, 12, 2 этаж
56.847377;60.623651;Заповедник;сеть зооцентров;Бажова, 45, 1 этаж
56.865417;60.533702;Анстер;сеть зоомагазинов;Техническая, 35, 1 этаж
56.828504;60.599527;Заповедник;сеть зооцентров;ТРЦ Гринвич, 8 Марта, 46, 0 этаж, напротив гипермаркета Гипербола
56.834804;60.682878;Анстер;сеть зоомагазинов;Сиреневый бульвар, 2, 2 этаж
56.831116;60.549817;Заповедник;сеть зооцентров;Крауля, 70
56.792629;60.623409;Анстер;сеть зоомагазинов;Родонитовая, 19, цокольный этаж, супермаркет Кировский
56.792807;60.519891;Заповедник;сеть зооцентров;ТРЦ Академический, Краснолесья, 133, 1 этаж
56.904083;60.6006;Анстер;сеть зоомагазинов;ТЦ Кировский Люкс, Восстания, 50, 3 этаж
56.840629;60.645816;Заповедник;сеть зооцентров;Гагарина, 22, 1 этаж
56.974049;60.576944;Анстер;сеть зоомагазинов;ТЦ Кировский, Орджоникидзе, 18, 2 этаж
56.856783;60.62867;Заповедник;сеть зооцентров;Пионеров, 12/1, 1 этаж
56.836503;60.546559;Анстер;сеть зоомагазинов;Татищева, 90, 1 этаж
56.839594;60.620203;Заповедник;сеть зооцентров;Ленина проспект, 48, цокольный этаж
56.816027;60.535575;Анстер;сеть зоомагазинов;Радуга Парк, Репина, 94, 1 этаж
56.902185;60.623038;Заповедник;сеть зооцентров;Фрезеровщиков, 27
56.812067;60.515956;Анстер;сеть зоомагазинов;Соболева, 5, 1 этаж, супермаркет Кировский
56.792691;60.617509;Заповедник;сеть зооцентров;Родонитовая, 3/1, 1 этаж
56.796454;60.612012;Анстер;сеть зоомагазинов;Ботаника Молл, Академика Шварца, 1, 2 этаж
56.888762;60.612925;Заповедник;сеть зооцентров;ТЦ Стрелка, Космонавтов проспект, 23а, 2 этаж
56.913375;60.823807;Анстер;сеть зоомагазинов;Яблоко, Гагарина, 22, 2 этаж
56.869336;60.552702;Заповедник;сеть зооцентров;Бебеля, 156, 1 этаж
56.86156;60.647015;Анстер;сеть зоомагазинов;Боровая, 19, 1 этаж, супермаркет Кировский
56.847409;60.618569;Заповедник;сеть зооцентров;Луначарского, 83
56.895381;60.640119;Анстер;сеть зоомагазинов;Черноморский переулок, 3, 1 этаж
56.863217;60.63156;Заповедник;сеть зооцентров;ТРЦ Парк Хаус, Сулимова, 50, 1 этаж
56.788922;60.648867;Анстер;сеть зоомагазинов;ТРК Глобус, Щербакова, 4, 1 этаж, гипермаркет РАЙТ
56.856385;60.640107;Заповедник;сеть зооцентров;Советская, 41, 1 этаж
56.797006;60.581829;Анстер;сеть зоомагазинов;Экомолл Гранат, Амундсена, 63, 1 этаж
56.84898;60.563989;Заповедник;сеть зооцентров;Опалихинская, 15
56.909579;59.931582;Анстер;сеть зоомагазинов;ТЦ Марс, Космонавтов проспект, 13, цокольный этаж
56.832642;60.58207;Заповедник;сеть зооцентров;ТРЦ Алатырь, Малышева, 5, -1 этаж
56.792786;59.903782;Анстер;сеть зоомагазинов;Максима Горького, 48, 1 этаж
56.908701;60.819016;Заповедник;сеть зооцентров;Анучина, 3
56.882597;60.011456;Анстер;сеть зоомагазинов;Талица, 7
56.863994;60.651821;Заповедник;сеть зооцентров;Бехтерева, 4, 1 этаж
56.91162;59.950596;Анстер;сеть зоомагазинов;Ленина, 8, 2 этаж
56.88602;60.583835;Заповедник;сеть зооцентров;22 Партсъезда, 2
56.836734;60.688536;Доктор Айболит;сеть ветеринарных клиник;Рассветная, 3Б
56.840457;60.596667;Алиса;ветеринарная клиника;8 Марта, 2, цокольный этаж
56.872692;60.515658;МастерВет;ветеринарная клиника;БД СоветникЪ, Маневровая, 9, 1 этаж
56.855771;60.585896;А-Витта;ветеринарная клиника;Стрелочников, 5
56.818034;60.618607;Неовит;сеть ветеринарных клиник;УрГАУ, Белинского, 112а, цокольный этаж
56.86632;60.636978;Ветеринарная станция;;Вилонова, 4, 1 этаж
56.82429;60.569031;Хатико;ветеринарная клиника;Посадская, 21/2, 1 этаж
56.744357;60.707023;Ветеринарный кабинет;ИП Бабкин А.А.;Революции, 90
56.780821;60.533727;Дядя Федор;ветеринарная клиника;Чкалова, 252, 1 этаж
56.756601;60.697529;Ветдоктор;ветеринарная клиника;Профсоюзная, 55, 1 этаж
56.890714;60.575197;ЗООДОКТОР;ветеринарный центр;Культуры, 25, 1 этаж
56.809671;60.613099;Ветеринарный кабинет №1;;Степана Разина, 79
56.810115;60.62206;Леон;ветеринарная клиника;Белинского, 156/1
56.799758;60.620775;Динго;ветеринарный госпиталь;Чайковского, 90, 1 этаж
56.811085;60.631923;GROOM;салон для животных;Щорса, 24, 1 этаж
56.811768;60.576916;Аристей;ветеринарная клиника;Шаумяна, 83, 1 этаж, левое крыло
56.88755;60.506764;Доверие;ветеринарная клиника;Билимбаевская, 34/2, 1 этаж
56.849653;60.622509;Мяура;ветеринарная клиника;Шевченко, 33, 1 этаж
56.883661;60.571372;Бэмби;ветеринарная клиника;Машиностроителей, 59, цокольный этаж
56.714708;60.830026;Арамильская ветеринарная лечебница;;Пролетарская, 80
56.905327;60.797654;Березовская ветеринарная лечебница;;Пролетарская, 8а
56.908793;60.79971;РАНАРА;ветеринарная клиника;Красных Героев, 4/1, 1 этаж
56.844785;60.638701;Наш Доктор;ветеринарная клиника;Первомайская, 74, 1 этаж
56.760898;60.552289;Сфера-9;ветеринарная клиника;Историческая, 54
56.808404;60.60143;Зоорегион;розничный магазин;ТЦ Дмитриевский, Сурикова, 51, цокольный этаж
56.976003;60.598187;Ветеринарная станция;г. Верхняя Пышма;Радуга, 1
56.786264;60.524678;Белый Лев;ветеринарный центр;Анатолия Мехренцева, 42
56.805211;60.486661;ВЕТГОСПИТАЛЬ на Широкой речке;;Ледовый дворец Сивкова, Лиственная, 65, 1 офис
56.930758;59.952259;Первоуральская ветеринарная лечебница;;Братьев Пономарёвых, 111
56.698541;60.825695;Ветеринарный кабинет;ИП Чернышева Е.И.;Чкалова, 1/2
56.764355;60.602043;Verus;ветеринарная клиника;Эскадронная, 4а, 2 этаж
56.810737;60.51223;Вета;ветеринарный центр;ЖК Аврора, Соболева, 19, 1 этаж
56.898351;60.608515;Балто;зоомагазин;Ильича, 65
56.901889;60.604652;АЛЬФА;ветеринарный кабинет;Восстания, 25, 1 этаж
56.80641;59.91351;Ваш Доктор Плюс;ветеринарная клиника;Больничный переулок, 3/1
56.993562;60.464231;Среднеуральский ветеринарный кабинет;;Ленина, 5, 2 этаж
56.908431;60.816621;Кот Бегемот;ветеринарная клиника;Театральная, 22, цокольный этаж
56.788184;60.528871;Хвостики;зоомагазин;Краснолесья, 93
56.915968;59.962173;ТеремокЗОО;ветеринарная клиника;Вайнера, 45в ст1, 1 этаж
56.831346;60.63913;Белый Тигр;центр ветеринарной помощи;Куйбышева, 137
56.845882;60.66005;Зверьё моё;ветеринарный кабинет;Курьинский переулок, 3, 1 этаж
56.903566;59.949964;Априори;клиника ветеринарной медицины;Ильича проспект, 12
56.702238;60.089597;Частная ветеринарная клиника;;Калинина, 19Б
56.873067;60.296677;Солнечный;ветеринарный центр;Мира, 9
56.90999;60.797853;Леопольд;ветеринарный кабинет;ТЦ Монета плюс, Красных Героев, 2д, 2 этаж
56.815297;59.933642;Ревдинская ветеринарная лечебница;;Заречная, 1
56.973518;60.575016;Ветеринарный кабинет;;Кривоусова, 17, 1 этаж
56.807314;59.908454;Ветеринарная клиника;;Энгельса, 54
56.87786;60.682316;Лапочка;ветеринарный кабинет;Искровцев, 38а, 101 офис, 1 этаж
56.695501;60.794341;ГлаМурка;ветеринарный кабинет;Космонавтов, 11а, 1 этаж
56.756536;60.605294;Выездная ветеринарная служба;ИП Васильев А.В.;Окружная, 8
56.993594;60.476548;Ветеринарный участок;г. Среднеуральск;Металлистов, 36а, 1 этаж
56.807314;59.908454;Зооцентр;;Энгельса, 54
56.863165;60.565209;Ветритуал;центр;Крупносортщиков, 14, 1 этаж
56.908701;60.819016;Ветеринарный кабинет;;Анучина, 3, 1 этаж
56.837985;60.556295;Ветеринарная станция;;Красноуральская, 2
56.851965;60.637891;Ветдоктор;ветеринарная клиника;Уральская, 76, цокольный этаж
56.794565;60.568816;ЗООДОКТОР;ветеринарный центр;Решетникова проезд, 22, 1, 2 этаж
56.829996;60.547826;Доктор Айболит;сеть ветеринарных клиник;Крауля, 63а
56.896528;60.634843;ЭФА;ветеринарная клиника;Энтузиастов, 42, 1 этаж
56.785566;60.514435;GROOM;салон для животных;Академика Сахарова проспект, 53
56.84452;60.637071;Доверие;ветеринарная клиника;Первомайская, 72, 1 этаж
56.980058;60.546637;РАНАРА;ветеринарная клиника;Успенский проспект, 125г, цокольный этаж
56.813513;60.599165;Наш Доктор;ветеринарная клиника;Сурикова, 24
56.896132;60.615171;Алиса;ветеринарная клиника;Космонавтов проспект, 62, 1 этаж, зооцентр Анстер
56.909922;60.578258;Ветеринарная станция;;Избирателей, 148
56.84611;60.559471;Ветдоктор;ветеринарная клиника;Бебеля, 17, 1 этаж
56.809693;60.59227;ЗООДОКТОР;ветеринарный центр;Московская, 219, 1 этаж
56.790538;60.625186;Доктор Айболит;сеть ветеринарных клиник;Родонитовая, 26, 1 этаж
56.813419;60.571726;GROOM;салон для животных;Шаумяна, 87, 1 этаж
56.779628;60.649746;Ветеринарная станция;;Дунитовый переулок, 42
56.766824;60.60533;ЗООДОКТОР;ветеринарный центр;Аптекарская, 45, 1 этаж
56.772817;60.823157;Ветеринарная станция;;Апрельская, 26
56.830049;60.565039;Заповедник;сеть зооцентров;Крауля, 8, 1 этаж
56.817893;60.619533;Областная ветеринарная лаборатория;;Белинского, 112в
56.835481;60.584028;Уши, лапы, хвост;выездная ветеринарная служба;Московская, 37
56.9155;59.918835;Ветеринарная лаборатория;;Ленина, 22, 1 этаж
56.975856;60.598796;Областная ветеринарная лаборатория;;Радуга, 1/1
56.821157;60.603339;Поликлиника №1;Центральная городская больница №6;Сапёров переулок, 3
56.866714;60.641559;Поликлиника №1;Центральная городская больница №7;Вилонова, 33
56.831679;60.553613;Новая больница;поликлиника;Заводская, 29 к2
56.83582;60.684603;Поликлиника №3;Центральная городская больница №7;Сыромолотова, 19
56.807268;60.539456;Поликлиника №4;Центральная городская больница №6;Серафимы Дерябиной, 34д
56.840669;60.579837;Поликлиника;Центральная городская больница №2;Московская, 2, 1 этаж
56.794893;60.623546;Поликлиника;Центральная городская клиническая больница №24;Академика Шварца, 14г
56.824431;60.627925;Поликлиника №1;Центральная городская клиническая больница №1;Декабристов, 27а
56.849352;60.599606;Городской центр спортивной медицины;Детская городская поликлиника №13;Ерёмина, 15, 1 этаж
56.869281;60.551862;Поликлиника №1;Центральная городская больница №3;Бебеля, 160
56.885859;60.573216;Поликлиника;Городская клиническая больница №14;Суворовский переулок, 5в
56.778073;60.633234;Поликлиническое отделение №3;Центральная городская больница №20;Короткий переулок, 2
56.839913;60.624859;Поликлиника №3;Центральная городская клиническая больница №1;Ленина проспект, 52, 1 этаж
56.888254;60.632776;Поликлиника;Центральная городская больница №23;Старых Большевиков, 9
56.815219;60.620789;Поликлиника №2;Центральная городская больница №6;Белинского, 130, 1 этаж
56.907347;60.8248;Поликлиника №1;Берёзовская центральная городская больница;Шиловская, 28
56.841202;60.619499;Поликлиника №2;Центральная городская больница №7;Ленина проспект, 53, 1 этаж
56.751268;60.703918;Поликлиническое отделение №1;Центральная городская больница №20;Зои Космодемьянской, 42
56.852355;60.603612;Поликлиника №2;Центральная городская больница №3;Братьев Быковых, 16/2
56.809571;60.563106;Консультативно-диагностическая поликлиника;Свердловская областная клиническая больница №1;Волгоградская, 185
56.822767;60.642121;Уральский оптико-механический завод;медико-санитарная часть;Инструментальщиков, 7, 1 этаж
56.896635;59.939403;Поликлиника №1;Первоуральская городская больница;Металлургов, 7а
56.790127;60.775469;Поликлиника №2;Центральная городская клиническая больница №1;Латвийская, 22, 1 этаж
56.978649;60.564429;Поликлиника;Верхнепышминская центральная городская больница им. П.Д. Бородина;Чайковского, 32
56.841182;60.599853;Поликлиника;Областная больница №2;Рабочей Молодёжи Набережная, 3
56.871632;60.52506;Поликлиника №3;Центральная городская больница №3;Седова проспект, 61
56.885859;60.573216;Поликлиника;Екатеринбургский консультативно-диагностический центр;Суворовский переулок, 5в
56.890697;59.876371;Поликлиника;Городская больница №3;Огнеупорщиков, 38
56.838227;60.554962;Екатеринбургский медицинский научный центр профилактики и охраны здоровья рабочих промышленных предприятий;;Красноуральская, 2а
56.697726;60.862771;Поликлиника;Арамильская городская больница;Садовая, 10
56.795635;59.902468;Поликлиника;Ревдинская городская больница;Олега Кошевого, 4
56.984782;60.472363;Поликлиника;Верхнепышминская центральная городская больница им. П.Д. Бородина, филиал в г. Среднеуральске;Парижской Коммуны, 3а
56.736965;60.959711;Косулинская участковая поликлиника;;Строителей, 5
56.877915;60.6936;Поликлиника №4;Центральная городская больница №7;Приисковая, 11
56.996361;60.60879;Верхнепышминская центральная городская больница им. П.Д. Бородина;с. Балтым;Первомайская, 39а
56.923665;60.61229;Здравпункт;Поликлиника ЕКДЦ;Космонавтов проспект, 99, 1 этаж
56.804825;60.505856;Поликлиника;Свердловский областной онкологический диспансер;Соболева, 29/3, 1 этаж
56.892264;59.96914;Поликлиника;Городская больница №4;Мамина-Сибиряка, 2а
56.692584;60.085793;Поликлиника;Дегтярская городская больница;Куйбышева, 22
56.808358;60.508107;Поликлиника;Свердловский областной клинический психоневрологический госпиталь для ветеранов войн;Соболева, 25
56.953621;59.803074;Поликлиническое отделение;Городская больница №4;Мира, 6а/1
56.793792;60.579293;Поликлиника №1;Центральная городская больница №6;Академика Постовского, 12, 1 этаж
56.796514;60.512732;Поликлиника №4;Центральная городская больница №6;Рябинина, 19
56.822039;60.573886;Поликлиника;Центральная городская больница №2;Посадская, 37, 1 этаж
56.784266;60.601279;Поликлиника;Центральная городская клиническая больница №24;Рижский переулок, 16
56.778073;60.633234;Поликлиническое отделение №3;Центральная городская больница №20;Короткий переулок, 2, 1 этаж
56.896874;60.746217;Поликлиника №1;Берёзовская центральная городская больница;Смирнова, 3, 1 этаж
56.842497;60.613492;Поликлиника №2;Центральная городская больница №7;Первомайская, 11
56.762388;60.81291;Поликлиника №2;Центральная городская клиническая больница №1;Авиаторов, 2/1
56.965697;60.607348;Поликлиника;Верхнепышминская центральная городская больница им. П.Д. Бородина;Петрова, 47а
56.840127;60.598799;Поликлиника;Областная больница №2;8 Марта, 3
56.761399;60.570027;Поликлиника №4;Центральная городская больница №6;Предельная, 10Б
56.797922;60.486064;Поликлиника;Центральная городская больница №2;Удельная, 5а
56.804991;60.623704;Поликлиника;Центральная городская клиническая больница №24;Авиационная, 82, 1 этаж
56.777969;60.633639;Поликлиническое отделение №3;Центральная городская больница №20;Короткий переулок, 2, 1 этаж
56.779538;60.881537;Поликлиника №2;Центральная городская клиническая больница №1;Главная, 17, 1 этаж
56.850044;60.562568;Поликлиника;Центральная городская больница №2;Опалихинская, 21
56.760712;60.61094;Поликлиника;Центральная городская клиническая больница №24;Селькоровская, 62
56.830069;60.627098;ЛОРздрав;сеть медицинских центров;Куйбышева, 107, 1 этаж
56.804387;60.60061;ЛОРздрав;сеть медицинских центров;ЖК Премьер, Циолковского, 27, 1 этаж
56.809359;60.508784;Свердловский областной клинический психоневрологический госпиталь для ветеранов войн;;Соболева, 25
