latitude;longitude;Название;Описание;Адрес
56.83644;60.614063;BUNIN BAR;;Малышева, 51 лит А, 1 этаж
56.831897;60.613679;InTouch Cocktail Bar;коктейль-бар;Розы Люксембург, 23, 1 этаж
56.820781;60.545289;ПИВБУРГ;крафт-бар;Репина, 68, 1 этаж
56.829879;60.592564;ON BAR;;Радищева, 25, 1 этаж
56.836909;60.622679;UHC Contrast;;ТЦ Crystals, Малышева, 71, 1 этаж
56.82661;60.616804;Максимилианс;баварский клубный ресторан;Центр Международной Торговли, Куйбышева, 44д, цокольный этаж
56.839921;60.613672;Grott Bar;бар;Ленина проспект, 49, 1 этаж
56.833706;60.59762;ШашлыкоFF;гриль-бар;ДЦ Малышева 36, Малышева, 36, 2 этаж
56.839312;60.597944;ГАСТРОЛИ;гастрономический паб;8 Марта, 4, 1 этаж
56.841102;60.611256;Bukowski;ресторан-бар;Карла Либкнехта, 32
56.842952;60.610546;MOMO pan asian kitchen;гастробар;Карла Либкнехта, 38а, 1 этаж
56.838952;60.623677;The Optimist;бар-ресторан;БЦ Континент, Ленина проспект, 50Б, 1 этаж
56.826268;60.639751;Угли;ресторан;Сибирский тракт, 3, 1 этаж
56.826793;60.605305;Градусы;бар-клуб;8 Марта, 43а
56.836475;60.616046;CHiLi;бар-клуб;ТРЦ Антей, Малышева, 53, 6 этаж
56.837653;60.586516;Emerald;отель;Сакко и Ванцетти, 38
56.836749;60.592141;TENET;отель;Хохрякова, 1а
56.840701;60.611829;Friends restaurant & bar;ресторан;Карла Либкнехта, 22, 1 этаж
56.834057;60.621732;Огонёк;ресторан-бар;Деловой дом Филитцъ, Энгельса, 36, 1 этаж
56.837169;60.598675;Double Grill and Bar;бар;8 Марта, 8Б, 1 этаж
56.890814;60.597631;Жадина Говядина;стейк-бар;Кировградская, 28, 1 этаж
56.900263;60.595059;Royal Pub & Restaurant;английский паб-бильярдная;Победы, 51а
56.831939;60.614072;Pashkin Bar;бар;Розы Люксембург, 19, цокольный этаж
56.833976;60.591808;Нельсон Совин;пивной бар;Малышева, 21/4, 1 этаж
56.834958;60.599148;New Bar;арт-коктейль-бар;ТЦ Мытный Двор, 8 Марта, 8д, 3 этаж
56.83518;60.613709;ALIBI;бар;Отель Центральный, Малышева, 74, 1 этаж
56.839425;60.597906;Шалом Шанхай;бар;8 Марта, 4, цокольный этаж
56.827818;60.597617;Britannia;паб;Вайнера, 64а
56.840709;60.65206;8`500 Pan American;кафе-бар;Мира, 23, 1 этаж
56.837929;60.607746;The Rosy Jane;английский паб;Ленина проспект, 34, 1 этаж
56.833529;60.600397;Первый танцевальный;;Малышева, 44, 2, 3 этаж
56.844476;60.616656;Чак Норрис;бар;БЦ Манхэттен, Мамина-Сибиряка, 101, 1 этаж
56.826049;60.612115;Ben Hall;паб;БЦ Nebo, Народной Воли, 65, цокольный этаж
56.83246;60.589966;Brugge Brasserie Belge;бельгийский пивной бар;Сакко и Ванцетти, 61, 1 этаж
56.835991;60.614245;Влади;бар;БЦ Высоцкий, Малышева, 51, 37 этаж
56.836096;60.600903;proRock;клуб-бар;8 Марта, 13, цокольный этаж
56.842815;60.616055;James;ресторан-паб;Мамина-Сибиряка, 58, 1 этаж
56.837852;60.602352;BOULEVARD;бар;Воеводина, 1
56.827901;60.607944;Сплетни;бар;ТК Nautilus, Куйбышева, 61
56.836685;60.596058;Metis;гастробар;Универмаг Пассаж, Вайнера, 9, 5 этаж
56.837037;60.582533;Мята;кафе-бар;БЦ Самолёт, Ленина проспект, 5л, 1 этаж
56.836487;60.598903;АГОНЬ BBQ Ratskeller;ресторан;8 Марта, 8Б
56.836533;60.593637;Леонид Исаакович;бар;ТЦ Успенский, Вайнера, 10, 5 этаж
56.848659;60.498526;CUBA BEACH CLUB;пляжный комплекс;Большой Конный полуостров, 6
56.837272;60.601762;Подкова;бар-ресторан;Ленина проспект, 28 к2
56.832915;60.600061;Мизантроп;бар;8 Марта, 14, цокольный этаж
56.839746;60.61961;Перчини;итальянский ресторан;Ленина проспект, 48, 1 этаж
56.833822;60.595251;Мам я в хлам;пивной бар;БЦ Малышева 29, Малышева, 29, 1 этаж, около бургерной А ты где?
56.842914;60.61415;XXXX;бар;Тургенева, 18, 1, 2 этаж
56.842621;60.612857;Опыт;бар;Первомайская, 11в, 1 этаж, вход с торца
56.835045;60.595538;KILLFISH;дискаунт-бар;Вайнера, 9а, 2 этаж
56.836531;60.600596;Syndrome Bar;;8 Марта, 13
56.828281;60.593518;Magnitofon Bar & Dancing;бар;Хохрякова, 72
56.83464;60.616616;Old Fashioned Bar & Cocktails;бар;Красноармейская, 32, 1 этаж
56.81438;60.607635;Гриль-бар 57;;8 Марта, 104/1
56.833039;60.600496;50 Костей;гриль-бар;8 Марта, 23в
56.831638;60.600965;The Out Bar;бар;8 Марта, 31в
56.835555;60.598247;Коллектив;бар;8 Марта, 8г
56.835336;60.600802;BARABUM;;8 Марта, 17
56.831897;60.613679;Panda Bar;караоке-бар;Розы Люксембург, 23, 2-3 этаж
56.834551;60.605874;Gordon s;паб;Малышева, 56а, 1 этаж
56.839161;60.583856;Шейк;бар;Шейнкмана, 10, 1 этаж
56.841359;60.626019;Борода;крафт-бар;Бажова, 91
56.827054;60.632914;FAME CLUB & KARAOKE;ночной клуб;Бажова, 193
56.837269;60.616194;BiG Ural Band;музыкальный бар;Красноармейская, 1, 1 этаж
56.836475;60.616046;Антей;развлекательный центр;ТРЦ Антей, Малышева, 53, 6 этаж
56.835286;60.594399;Black Brilliant;ресторан;Попова, 1а, 1-3 этаж
56.835363;60.609808;Однерка;бар;Малышева, 39, цокольный этаж
56.827869;60.607648;Географ;бар;ТК Nautilus, Куйбышева, 61
56.828327;60.593924;Ля Мажор;караоке-бар;Хохрякова, 72, 1 этаж
56.8363;60.62044;Био Шмио;винный бар;Малышева, 61
56.804424;60.603037;Три Толстяка;бар-маркет;Циолковского, 29
56.84149;60.608408;The Yankee Bar;первый крафтовый на Урале;Толмачёва, 25, 1 этаж
56.864312;60.670408;F1;боулинг-клуб;БЦ Блюхера 58, Блюхера, 58, 2 этаж
56.84055;60.614545;Тирамису;бар-ресторан;Тургенева, 3, 1 этаж
56.83652;60.608641;FJORD;скандинавский паб;Пушкина, 7, цокольный этаж
56.829916;60.593476;Bierhof;ресторан;Радищева, 25, 1 этаж
56.806961;60.61201;Шервуд;кафе;ТРЦ Мегаполис, 8 Марта, 149, -1 этаж
56.843198;60.605162;Brut Bar;коктейль-бар;БЦ Сенат, Горького, 7а, 1 этаж
56.823513;60.605058;Gastropub Nota Bene!;ресторан;8 Марта, 51, 1 этаж
56.825238;60.62062;#НА РАБОТЕ;бар;Декабристов, 16/18Б, 1 этаж
56.788876;60.514713;#Мой бар;;Вильгельма де Геннина, 47
56.836064;60.609528;Fat Dog;бар;Пушкина, 4, 1 этаж
56.834577;60.611814;КАПЧО БАР;;Розы Люксембург, 8/10, 1 этаж
56.804011;59.93767;Кин-Дза-Дза;развлекательный центр;Клубная, 8 ст15
56.848586;60.611548;343 bar;ночной клуб;Шевченко, 9, 1 этаж
56.829219;60.588903;Кардамон;кафе;Радищева, 33, 1 этаж
56.82849;60.596818;Свой Бар;;Вайнера, 60
56.806836;60.613227;ЛепимВарим;кафе;ТРЦ Мегаполис, 8 Марта, 149, 4 этаж
56.833713;60.604321;U-BAR Music Loft;музыкальный бар;Добролюбова, 3в
56.828173;60.594164;Сытый пёс;бар;Хохрякова, 72
56.835297;60.595454;Колбаса;гриль-бар;Вайнера, 9а, цокольный этаж
56.839921;60.613672;Snasty Bar;;Ленина проспект, 49, 1 этаж
56.830872;60.600037;Телевизор;бар;Радищева, 4, цокольный этаж
56.832926;60.581878;Grizzly Family;ресторан;ТРЦ Алатырь, Малышева, 5, 4 этаж
56.798001;60.6168;Кастанеда;стейк-бар;Юлиуса Фучика, 3, 1 этаж
56.837474;60.61564;Черничные Ночи;караоке-бар;Красноармейская, 8
56.832413;60.599046;Джинн;;8 Марта, 18а
56.841268;60.651847;Япона Pub;сеть баров;Мира, 23, 1 этаж
56.830802;60.612996;Cannonball Brasserie;бар;Карла Маркса, 13, цокольный этаж
56.840817;60.583462;Улетели;рестобар;Шейнкмана, 9, 1 этаж
56.834852;60.602631;CRAFT;крафтовый мини-бар;Воеводина, 6, 1 этаж, 1 подъезд
56.847984;60.599646;Подруга друга;бар;Николая Никонова, 18, 1 этаж
56.830965;60.593028;BAR.OLO;винотека;Хохрякова, 48, 1 этаж
56.78118;60.533867;Мама Чоли;домашний ресторан;Чкалова, 250
56.841737;60.642108;Хитровка;кафе-бар;Ленина проспект, 68, цокольный этаж
56.834103;60.598201;ЛАВКРАФТ;бар-магазин;Малышева, 31в, 2 этаж, кофе-бар Coffee Box
56.791728;60.612016;Огонёк;гриль-бар;Крестинского, 25/1
56.825161;60.552289;Огни Баку;кафе-клуб;Репина, 42а, 1 этаж
56.837896;60.608837;Pro Vino Vineria & Bar;винный бар;Пушкина, 16, 1 этаж
56.834165;60.592286;Karma;винный бар;Хохрякова, 21, цокольный этаж
56.784016;60.608976;Fun Фары;ресторан-караоке;Титова, 1, 1 этаж
56.802941;60.609852;Old Deer bar;магазин-бар;8 Марта, 190, 1 этаж
56.907251;60.797751;Беллиссимо;кафе-паб;Пролетарская, 1в
56.842798;60.618767;Мелодия;бар;Первомайская, 36, 1 этаж, вход с торца
56.828432;60.587372;Арбатский;магазин разливного, импортного и крафтового пива;Шейнкмана, 86а, 1 этаж
56.832678;60.586203;Ирландский дворик;бар;Малышева, 11, 1 этаж
56.894304;60.612331;Жюль Верн;кафе-бар;Победы, 4, 1 этаж
56.817938;60.59395;Garage Pub;;Шейнкмана, 123, 2 этаж
56.832017;60.596569;BURGER SHOP;бургерная;Вайнера, 15а, 1 этаж
56.799994;60.571251;Бардin;караоке-бар;Академика Бардина, 37, 2 этаж
56.813055;60.621298;Stuff Bar;;Белинского, 132, 1 этаж
56.825985;60.587742;The Stash Bar;;Шейнкмана, 90, 1 этаж
56.982317;60.544636;СССР;кафе;Успенский проспект, 62
56.83664;60.623309;SORRISO;остерия-бар;ТЦ Crystals, Малышева, 71, 2 этаж, универмаг BOLSHOY
56.835025;60.610031;Верде;гастробар;Малышева, 64
56.898319;60.628903;BIG Бык;стейк-хаус;Красных Командиров, 29
56.842872;60.620681;СПЯЩАЯ СОБАКА;крафт-бар;Первомайская, 40, цокольный этаж
56.908388;60.620602;SHEFF;рестобар;Шефская, 110а, цокольный этаж
56.833062;60.614712;Hopsinjoor;бар;Белинского, 30, 1 этаж
56.857175;60.593816;Армения;ресторанный комплекс;Стрелочников, 35, 1 этаж
56.820241;60.540359;Vertolet grill & bar;;Репина, 103 блок 2, 1 этаж
56.830143;60.591824;Асадо;гриль-бар;Сакко и Ванцетти, 99, цокольный этаж
56.831222;60.615349;In100gramm;коктейль-бар;Белинского, 34, 1 этаж, вход с ул. Карла Маркса
56.813443;60.591034;Boozer;караоке-бар;Фурманова, 117, цокольный этаж
56.824204;60.599584;Де Виль;ресторан;Народной Воли, 24, 1 этаж
56.850168;60.593055;ADMIRAL;кафе-бар;Челюскинцев, 60, цокольный этаж
56.839745;60.659432;Paradise;ресторанный комплекс;Комсомольская, 68
56.839799;60.5998;БЕЗ ТОРМОЗОВ;бар;Химиков переулок, 3, цокольный этаж
56.828857;60.588351;Евротель;гостиница;Радищева, 33, цокольный, 1, 2 этаж
56.832164;60.59961;Стрелка;бар крафтового пива;8 Марта, 18
56.803858;60.555858;ШАШЛЫК МАРКЕТ;;Академика Бардина, 21/1, 1 этаж
56.845878;60.560163;Пещера;диско-бар;Бебеля, 17, цокольный этаж
56.830703;60.597292;Хижина;пивной паб;Радищева, 12, цокольный этаж, вход с ул. Вайнера
56.817471;60.608031;Крафт Депо;крафтовый бар;Большакова, 85, цокольный этаж
56.781055;60.534208;jawsshop;крафт-бар;Чкалова, 250
56.830456;60.593182;Черчилль;виски-бар;Хохрякова, 48, 2 этаж
56.825828;60.6255;#ТУЗЕМУН;кофе-бар;Декабристов, 16/18и, 1 этаж
56.842961;60.627945;Papa Cormit;кафе-бар;Мичурина, 56
56.824492;60.60477;8.49;гастробар;8 Марта, 49, 1 этаж
56.745551;60.570685;Не просто бар;;Лучистая, 2
56.84051;60.593573;#БРДК;;Антона Валека, 12, 1 этаж
56.791624;60.520531;Пара Пива & БЕЛЯШ;бар-магазин;Вильгельма де Геннина, 33, 1 этаж
56.846319;60.618383;Гамбринус;бар;Луначарского, 87, 1 этаж
56.802603;60.628768;24 градуса;сеть круглосуточных маркет-баров;Белинского, 167, 1 этаж
56.843535;60.624216;БАГРАТИОН;винотека-кулинарная студия;Первомайская, 37, 1 этаж
56.822544;60.651609;Пятница;лаундж-кафе;Сибирский тракт, 12 ст1а, 1 этаж
56.887115;60.526709;Оливье;кафе;Расточная, 46, 2 этаж
56.826529;60.412344;Shamrock;паб;Малогородская, 16
56.81592;60.590266;Старая Прага;бар;Большакова, 157, 1 этаж
56.847984;60.599646;GERTZ;банкет-холл;Николая Никонова, 18, 1, 2 этаж
56.826009;60.556354;Мачо Пикчо;гриль-бар;Металлургов, 6а, цокольный этаж
56.781251;60.669648;Пивной BarON;спортбар;Рощинская, 29, цокольный этаж
56.80157;60.611523;Викинг;бар;ЖК Зелёный мыс, 8 Марта, 194, 1 этаж
56.834291;60.646275;Палех;ресторан;Гагарина, 30а, 2 этаж
56.839745;60.659432;Paradise;караоке-бар;Комсомольская, 68
56.842853;60.591413;Fireside;караоке-бар;Отель Hyatt, Бориса Ельцина, 8, 1 этаж
56.857153;60.635538;МЕЧТА;кафе;Парковый переулок, 41/3, 1 этаж
56.781117;60.681076;Три Мушкетера;кафе;Алтайская, 70, 1 этаж
56.79626;60.51543;Полевская варня;бар-магазин;Краснолесья, 161
56.887026;60.591669;НЕОН;бар;Культуры, 2, 2 этаж
56.789568;60.527421;FSC;кафе-бар;Краснолесья, 97, цокольный этаж
56.80485;60.559744;У Вани;кафе;Академика Бардина, 25/2
56.884278;60.633038;ПИВМИР;магазин разливного пива;Стачек, 4
56.84047;60.655593;Ричмонд;ресторан;Малышева, 136
56.800971;60.494889;Пивоварни ПО;бар-маркет;Суходольская, 47, 1 этаж
56.836065;60.682036;Коварная Вобла;паб;Сыромолотова, 17, 1 этаж
56.844191;60.626269;Шоколад;кафе-бар;Бажова, 75а, 1 этаж
56.769157;60.61265;Дрова;гриль-бар;Санаторная, 8, 1 этаж
56.83709;60.601889;Графъ.inn;гастробар;Воеводина, 4, 1 этаж
56.853259;60.604357;Медный грош;бар;Свердлова, 25, цокольный этаж
56.777179;60.656582;Кубрик;кафе-клуб;Гостиница Уктус, Прониной, 25, 1 этаж
56.840378;60.547785;Бросай якорь;бар;Кирова, 40Б, 1 этаж
56.851272;60.658769;Bigly;бар-ресторан;Академическая, 28а
56.813172;60.63012;ОГНИ;лобби-бар;Машинная, 1Б к2, 1 этаж
56.735969;60.961044;Старый тракт;кафе-бар;Ленина, 68
56.750973;60.79903;Jazz Bar & Lounge;кафе-бар;Отель Angelo Екатеринбург, Бахчиванджи, 55а, 1 этаж
56.850347;60.569205;Золотая долина;гриль-бар;Готвальда, 6/2
56.888028;60.594306;Пельменная;;Ильича, 7, 1 этаж
56.905188;60.568355;Victory Холл;развлекательный центр;АВС-Отель, Республиканская, 1а, 1 этаж
56.899773;59.878272;ФилитцЪ;пивной бар;Сантехизделий, 34, 2 этаж
56.830987;60.581064;Мохито;гриль-бар;Малышева, 2ж, 1 этаж
56.82294;60.587879;Mango;лобби-бар;Шейнкмана, 110а, 1 этаж
56.871606;60.547131;Пивная Галерея;магазин разливных напитков;Пехотинцев, 4 к2, 1 этаж
56.860596;60.551984;Бабай;кафе-бар;Бебеля, 136, цокольный этаж
56.827988;60.599188;Green bar;;ТРЦ Гринвич, 8 Марта, 46, 0 этаж
56.775523;60.717228;Boogie`s bar;бар;Отель Ramada, Кольцовский тракт 10 км, 15, 2 этаж
56.697972;60.087941;Broadway;бар;Калинина, 29/2, 2 этаж
56.790841;60.515516;СЫТО & ПЬЯНО;магазин-бар;Вильгельма де Геннина, 42
56.906418;60.618084;Хитрый;бар;Шефская, 91/4, 1 этаж
56.744284;60.567457;Бахус;магазин;Лучистая, 4, 7 подъезд
56.886378;60.616429;Крепкое и Хмельное;магазин;Краснофлотцев, 2, 1 этаж
56.826832;60.636841;The :ШРШ;бар-маркет разливных напитков;Восточная, 166, Цокольный этаж
56.773721;60.610411;от ЗАКАТА до РАССВЕТА;кафе;Титова, 44а
56.842853;60.591413;Boudoir;бар;Отель Hyatt, Бориса Ельцина, 8, 4 этаж
56.790945;60.646806;BREEZe BAR;;Щербакова, 2, 1 этаж, гостиница Атлантик by USTA Hotels
56.791855;60.52333;Гоголь;бар;Краснолесья, 125, 1, 2 этаж
56.866155;60.569192;Старая крепость;кафе;Уральских Коммунаров, 124
56.844476;60.616656;Кальян66.рф;организация кейтеринга парового коктейля;БЦ Манхэттен, Мамина-Сибиряка, 101, 1 этаж
56.837095;60.587145;Lounge Bar Four Elements Hotels Ekaterinburg;;Ленина проспект, 9а, 1 этаж
56.750473;60.801364;Charter`s pub;кафе;Аэропорт Кольцово, Бахчиванджи площадь, 1, терминал А
56.837702;60.548094;GENT;бар;Гостиница Визави, Татищева, 86, 1 этаж
56.779426;60.547594;Гусарский;бильярдный клуб;ТЦ Краснолесье, Краснолесья, 12а, 6 этаж
56.845229;60.615643;Ballad;бар;Мамина-Сибиряка, 52, 5 этаж
56.831792;60.538183;Edler Bar;пивной бар;Крауля, 82, 1 этаж
56.815561;60.599238;В гостях у сказки;бар разливного пива;Сурикова, 7, 1 этаж
56.799726;60.613736;Алтайпиво;пивной бар;8 Марта, 179в, цокольный этаж
56.906407;60.80961;ЧЕМПИОН;спортбар;Восточная, 11, 1 этаж
56.83856;60.608583;АртКрафтБар;;Ленина проспект, 36, цокольный этаж
56.842853;60.591413;T Lounge;лобби-бар;Отель Hyatt, Бориса Ельцина, 8, 1 этаж
56.857983;60.660109;TURBA Cafe;;Студенческая, 1 лит К
56.833061;60.65926;HOPS;бар;Библиотечная, 43, 1 этаж
56.781996;60.553202;Кафе-бар;;Михеева, 2, 1 этаж
56.848907;60.563872;Кафе быстрого питания;;Опалихинская, 15, 1 этаж
56.761334;60.597079;Кранбург;бар-маркет;Газетная, 67, 1 этаж, справа от магазина Пятёрочка
56.798575;59.909139;Рандеву;кафе-бар;Мира, 17а/1
56.828987;60.636;Кранбург;бар-Маркет;Восточная, 162
56.89899;60.643157;Чешский лев;бар;Даниловская, 12, 1 этаж
56.862175;60.545993;Встреча;кафе-бар;Техническая, 14, цокольный этаж
56.863953;60.580945;АРДА ГРУПП;торговая компания;ОСК LOGO PARK, Майкопская, 10, 22-24 складское помещение
56.839069;60.612871;Jam;бар;Ленина проспект, 40, 1 этаж
56.950818;60.786712;Лесная поляна;кафе-бар;44-й квартал, 2а
56.832239;60.690211;УРАЛ;спортбар;Панельная, 13, цокольный этаж
56.697372;60.798963;Маруся;диско-бар;Гарнизон, 20а
56.910395;60.807045;Tochka;бар;Восточная, 3а, 302 офис, 3 этаж
56.806905;60.613196;Lagerfield brewery;пивоварня;ТРЦ Мегаполис, 8 Марта, 149, 4 этаж, кафе ЛепимВарим
56.799353;59.90928;ПивШа;кафе;Максима Горького, 21а
56.905964;60.613966;ЧБ lounge;бар;Космонавтов проспект, 84
56.85601;60.6053;ШашлыкоFF;гриль-бар;Гостиница Маринс Парк Отель, Челюскинцев, 106
56.828047;60.598378;Friends restaurant & bar;ресторан;ТРЦ Гринвич, 8 Марта, 46, 1 этаж
56.839187;60.613861;KILLFISH;дискаунт-бар;Ленина проспект, 46, цокольный этаж
56.828519;60.597329;Три Толстяка;бар-маркет;Вайнера, 60
56.895756;60.608643;Friends restaurant & bar;ресторан;Победы, 14а, 1 этаж
56.790297;60.51527;Свой Бар;;Вильгельма де Геннина, 42, 1 этаж
56.792272;60.623734;Япона Pub;сеть баров;Родонитовая, 18Б, 2 этаж
56.84078;60.652455;KILLFISH;дискаунт-бар;Мира, 23, 1 этаж
56.832892;60.569303;Три Толстяка;бар-маркет;Мельникова, 27, 1 этаж
56.836986;60.5821;Крафт Депо;крафтовый бар;Ленина проспект, 5Б
56.895772;60.605192;Япона Pub;сеть баров;ТЦ Победа, Ильича, 47, 1 этаж
56.85103;60.641875;Старая Прага;бар;Гагарина, 1, 1 этаж
56.85455;60.613147;Полевская варня;бар-магазин;Мамина-Сибиряка, 23, 1 этаж
56.897715;60.593983;ПИВМИР;магазин разливного пива;Уральских Рабочих, 51
56.790337;60.479718;Пивоварни ПО;бар-маркет;Ручейная, 55
56.833226;60.544642;Коварная Вобла;паб;Викулова, 32а, 1 этаж
56.905184;59.951556;ФилитцЪ;пивной бар;ТРЦ Строитель, Ильича проспект, 31, 1 этаж
56.795543;60.516225;Три Толстяка;бар-маркет;Краснолесья, 149
56.798364;60.582307;Полевская варня;бар-магазин;Амундсена, 61
56.797238;60.581097;Япона Pub;сеть баров;Экомолл Гранат, Амундсена, 63, 3 этаж
56.79339;60.574356;Полевская варня;бар-магазин;Амундсена, 74
56.836565;60.544899;Три Толстяка;бар-маркет;Татищева, 90
56.804188;60.626981;Три Толстяка;бар-маркет;Белинского, 165
56.792847;60.625212;Три Толстяка;бар-маркет;Родонитовая, 23, 1 этаж
56.819789;60.567995;Три Толстяка;бар-маркет;Белореченская, 11
56.782441;60.64911;Ланч-кафе;;Жуковского площадь, 1/2а
56.890727;60.61448;Ассоль;кафе;Космонавтов проспект, 50, 1 этаж
56.907468;60.832108;Семейный Оазис;кафе-ресторан;Шиловская, 34
56.906441;60.609373;A-CAFE;;Индустрии, 117
56.887214;60.614931;ПиццБург;кафе;Баумана, 2, 0 этаж
56.829053;60.600508;МЫ ЕСТЬ;кафе осознанного питания;ТРЦ Гринвич, 8 Марта, 46, 2 этаж
56.851146;60.616704;Пироги.ру;пироговая лавка;Короленко, 8, 1 этаж
56.849768;60.684816;Карасики;кафе;Отдыха, 111/1
56.830793;60.613082;Петров Двор;кафе;Карла Маркса, 13
56.826954;60.599544;Нигора;сеть кафе узбекской кухни;Вайнера, 55
56.838636;60.612061;Бургер Кинг;сеть ресторанов быстрого питания;Карла Либкнехта, 18, 1, 2 этаж
56.837178;60.633193;Рататуй;кафе;Восточная, 72
56.834843;60.614476;Краснодарский парень;бургерная лавка;Белинского, 7, 1 этаж
56.839595;60.60953;Jang Su;кафе китайской кухни;Ленина проспект, 41
56.816373;60.606763;Farfalle;итальянский семейный ресторан-траттория;8 Марта, 92а
56.836148;60.616079;PTIZZA счастья;кафе;ТРЦ Антей, Малышева, 53, 5 этаж
56.850021;60.604634;Кинза и Базилик;ресторан армянской кухни;Свердлова, 11а, 1 этаж
56.894711;60.602824;Грядка Party;фермерское кафе;Уральских Рабочих, 26
56.832567;60.588222;ODjah;кафе домашней кухни;Малышева, 12Б, 1 этаж
56.833939;60.596533;Додо Пицца;сеть пиццерий;Малышева, 31
56.833647;60.59377;БАШИ;грузинская закусочная;Малышева, 27, 1 этаж
56.807349;60.602139;Room-Cafe;кафе;Щорса, 105
56.798081;60.616415;Матильда;семейное кафе-пекарня;Юлиуса Фучика, 3, 1 этаж
56.837698;60.599868;mammas;кафе;УГК, Ленина проспект, 26, 1 этаж
56.830026;60.594148;Райсан;кафе;Радищева, 23, 1 этаж
56.80906;60.612634;Пати-Шах;кафе;Щорса, 78, 2-3 этаж
56.788892;60.775689;Олимп;культурно-спортивный комплекс;КСК Олимп, Латвийская, 19
56.835353;60.599282;Сеул;кафе;ТЦ Мытный Двор, 8 Марта, 8д, 2 этаж
56.829068;60.672897;Тутокруто;интерактивный парк развлечений;КомсоМолл, Сибирский тракт дублёр, 2, 3 этаж
56.827804;60.581426;Планетарий;кафе здорового питания;Кухонный центр, Радищева, 55, 6 этаж
56.781939;60.536;Шангри-Ла;кафе китайской кухни;Чкалова, 250
56.839393;60.61002;Vietmon;кафе;Ленина проспект, 41, 1 этаж
56.834481;60.601285;Lamadjo;кафе;Малышева, 31д, цокольный этаж
56.805032;60.564512;Балетон;кафе;Академика Бардина, 28а
56.840632;60.657028;Старый Дамаск;кафе;Малышева, 140Б
56.843198;60.605162;Штолле;сеть пироговых;БЦ Сенат, Горького, 7а, 1 этаж
56.8359;60.615585;Пряности;кафе русской северной кухни;ТРЦ Антей, Малышева, 53, 1 этаж
56.862527;60.634265;Большие Тарелки;кафе для всех;Active Park, Сулимова, 46, 1 этаж
56.882667;60.699246;Каспий;кафе;Проезжая, 172/1
56.829377;60.621153;Подсолнухи;пироговая;Мамина-Сибиряка, 140, 1 этаж
56.893142;60.495642;Лыжная база на ст. Екатеринбург-сортировочный;;Решётская, 63
56.844816;60.59179;1991;кафе;Президентский Центр, Бориса Ельцина, 3а, 2 этаж
56.827335;60.609191;ХЛЕБ-da-СОЛЬ;кафе домашней кухни;Куйбышева, 38в
56.837078;60.59361;Люблю и Благодарю;кафе;Вайнера, 8, 2 этаж
56.785128;60.748989;7 НЕБО;комплекс;Гостиница 7 НЕБО, Сибирский тракт 12 км, 1
56.809837;60.564726;Югославия Гриль;закусочная сербской кухни;Волгоградская, 178а
56.970891;60.558697;Шеф-мангал;кафе;Бажова, 28в
56.827363;60.598349;Чайхона lounge;ресторан;Вайнера, 55
56.833538;60.611308;ТрансОтель;гостиница;Гоголя, 15е
56.833127;60.589807;Гиви to me;грузинский ресторан;Малышева, 19, 1 этаж
56.837109;60.609133;Замес;современная пельменная;Пушкина, 12, 1 этаж
56.797809;60.635786;Генацвале;кафе грузинской кухни;Белинского, 177, 1 этаж
56.78108;60.542618;ProMANGAL;кафе;Краснолесья, 19/1
56.810021;60.623289;Хоровац;кафе;Белинского, 141/1
56.848845;60.604323;Кузня;кафе;Мельковская, 3, цокольный этаж
56.835972;60.609563;Хачапури для Пушкина;кафе-пекарня;Пушкина, 4, 1 этаж
56.909338;60.591657;Shkzbar;кафе;Коммунистическая, 101а
56.828747;60.60007;Кацо;кафе-хинкальная;ТРЦ Гринвич, 8 Марта, 46, 3 этаж
56.824543;60.604751;Фо Ханой;кафе;8 Марта, 49, 1 этаж
56.839662;60.64865;Аль-Шам;кафе;Малышева, 130, цокольный этаж
56.83907;60.632414;ЗОЛОТОЙ БАМБУК;кафе вьетнамской кухни;Восточная, 64, 1 этаж
56.860524;60.648402;Харбин;кафе;Сулимова, 7Б
56.836494;60.58775;Хинкали|БЕСЕДЫ|Вино;кафе;Сакко и Ванцетти, 46, 1 этаж
56.844412;60.618273;Кидэ;грузинское бистро;Луначарского, 84, 1 этаж
56.802036;60.598856;Фортуна;бильярдный клуб;Айвазовского, 53, 3 этаж
56.830644;60.598068;Сайгон+;;Радищева, 10, 1 этаж
56.847332;60.662194;Киш-миш;кафе;Первомайская, 114, 1 этаж
56.800633;60.569552;Смаковани;кафе грузинской кухни;Академика Бардина, 33а
56.891943;60.626955;Заравшан;кафе восточной кухни;Баумана, 25, 1 этаж
56.837474;60.61564;Калачи;кафе;Красноармейская, 8
56.828528;60.600146;Кишмиш;чайхана;ТРЦ Гринвич, 8 Марта, 46, 3 этаж
56.929803;60.613741;Хинкальная №1;кафе;Космонавтов проспект, 145, 1 этаж
56.835151;60.562921;Bamboo;кафе семейного праздника;БЦ Татищевский, Татищева, 49а, 1 этаж
56.927998;60.614665;Свадебное;кафе;Космонавтов проспект, 138
56.845472;60.640862;Рохел;кафе дагестанской кухни;Первомайская, 77, 1 этаж
56.960499;59.810251;Ложка and Вилка;кафе;Ленина, 161
56.91493;60.611544;Zam-Zam;кафе узбекской кухни;Космонавтов проспект, 102/1
56.793378;60.522435;Плескавица гриль;кафе уличной сербской кухни;Вильгельма де Геннина, 29/1
56.840174;60.610774;BB & Burgers;бургерная;УрГАХУ, Карла Либкнехта, 23, 1 этаж
56.784322;60.531042;Берлога;кафе-закусочная;Колокольная, 22
56.826184;60.623122;Всё пучком;кафе;Народной Воли, 16а
56.785659;60.513275;Печёрин дворик;кафе;Академика Сахарова проспект, 53, 1 этаж
56.837553;60.60648;Бухара;чайхана;Ленина проспект, 32г, цокольный этаж
56.827241;60.632895;Ушгули;кафе грузинской кухни;Бажова, 193, 1 этаж, левое крыло
56.791673;60.519904;Мясная лавка им. Оливера Кромвеля;;Вильгельма де Геннина, 33, 1 этаж
56.824349;60.619502;Чайный дом по-восточному;кафе;Декабристов, 20, 1 этаж
56.827908;60.611521;РязановЪ;кафе-бар;Куйбышева, 42а
56.829413;60.591825;Амар;кафе-бар;Радищева, 31, 1 этаж
56.830762;60.608781;Патриот;пельменная-кулинария;Горького, 63, 1 этаж
56.816895;60.610378;Бенуа;кафе-чайная;Степана Разина, 39, 1 этаж
56.794807;60.628114;Чевапчичная #1;кафе с доставкой сербской кухни;Академика Шварца, 18/1, 1 этаж
;;Волна;база отдыха с горячим источником;Тюмень (Тюмень городской округ, Тюменская обл.)
56.834212;60.585278;Benedict;кафе;Попова, 25
56.836504;60.624799;TIFLIS;кафе;Малышева, 98, 1 этаж
56.829739;60.637747;Оазис;кафе;Восточная, 15а лит И
56.884125;60.637503;Оттепель;семейное кафе;Старых Большевиков, 1а, 1, 2 этаж
56.842059;60.664441;Мангал;шашлычная;Малышева, 145 лит Д, 1 этаж
56.820723;60.554509;Раневская;кафе советского быта;Начдива Васильева, 6, 1 этаж
56.906123;60.610311;Сдобная сказка;пекарня;Индустрии, 104
56.901919;60.605003;Счастливый остров;детский развлекательный центр;Восстания, 25, 2 этаж
56.904243;60.586733;Бакинский перекрёсток;кафе;Бакинских Комиссаров, 58а
56.849519;60.598795;ATHAI;кафе;Мельковская, 12а, 1 этаж
56.793287;60.522305;Добрый Кебаб;кафе;Вильгельма де Геннина, 29
56.836818;60.655116;Грильяж;кафе;Коминтерна, 16, 1 этаж
56.83977;60.66445;Мадина;кафе;Студенческая, 49
56.804295;60.625592;Лиса и Фазан;кафе немецкой кухни;Белинского, 200, 1 этаж
56.899009;60.620251;Лукоморье;кафе домашней кухни;Старых Большевиков, 77, 1 этаж
56.841172;60.592922;ДемидовЪ;кафе-музей;Февральской Революции, 9а
56.848648;60.712437;WERANDA;кафе;Пески посёлок, 26а
56.823957;60.616161;Чарли;кафе;Декабристов, 30
56.831327;60.592663;ТриДевятое;семейное кафе;Хохрякова, 48, 2 этаж
56.822797;60.547443;Бастурма;шашлычная;Репина, 58
56.919782;60.610967;Турист;кафе;Космонавтов проспект, 87, 1 этаж
56.826871;60.605009;Изюм;восточное кафе;8 Марта, 43а, цокольный этаж
56.822548;60.605483;Очаг;кафе домашней кухни;8 Марта, 55, 1 этаж
56.847492;60.60128;CoffeeUP;кофейня;Красный переулок, 14
56.815081;60.589556;ЛЮБОВЬ, Орлова;кафе советского быта;Московская, 193Б, 1 этаж
56.855996;60.605125;Марьяж;кафе;Гостиница Маринс Парк Отель, Челюскинцев, 106, 1 этаж
56.829969;60.556756;ОХОТА ПО-РУССКИ;караоке-бар;Крауля, 53, цокольный этаж
56.816043;60.539301;Дюжина;сеть пельменных;Радуга Парк, Репина, 94, 1 этаж
56.84265;60.644778;Вечеря у Солохи;корчма;Гагарина, 18, 1 этаж
56.887873;60.555993;Караван;кафе кавказской кухни;Павловская, 42
56.828559;60.647267;PIZZA BURGER BEER;кафе;Куйбышева, 98
56.794768;60.508043;Академик еды;кафе;Рябинина, 31, 1 этаж
56.838765;60.598076;Дебют;актерское кафе;8 Марта, 8, цокольный этаж
56.884606;60.585667;Афина;столовая;Машиностроителей, 29, 1 этаж
56.911628;60.596872;Рафаэль;кафе;Бакинских Комиссаров, 110
56.847119;60.595835;ДИВС;отель;ДИВС, Олимпийская Набережная, 3, цокольный этаж
56.828867;60.562381;Топ Чан;кафе;Токарей, 35
56.777444;60.703874;Соседи;кафе;Светлый микрорайон, 4, 1 этаж
56.828348;60.601264;Kong Fu;ресторан китайской кухни;ТРЦ Гринвич, 8 Марта, 46, 3 этаж
56.795945;60.629638;Макрус;кафе;Академика Шварца, 20/2, 1 этаж
56.840172;60.548208;Крюк;яхт-кафе;Кирова, 40Б, 2 этаж
56.819861;60.618352;Огни;лобби-бар;Белинского, 108, 1 этаж
56.779918;60.678317;Брауни;кафе;Рощинская, 48а
56.858659;60.59895;Пельменная №1;;Вокзальная, 12, 1 этаж
56.839425;60.597906;Фая;пиццерия;8 Марта, 4, 1 этаж
56.950262;60.781381;Закусочная;;Режевской тракт 19 км, 1
56.835162;60.59936;PingPong;кафе китайской кухни;ТЦ Мытный Двор, 8 Марта, 8д, 2 этаж
56.831603;60.60256;Hookup;кафе;Добролюбова, 16/2, 3 этаж
56.803771;60.56607;Крекер;вкусный ресторан;Академика Бардина, 28, 2 этаж
56.812421;60.603065;Винтаж;кафе;Фрунзе, 65, 1 этаж
56.831099;60.590784;Redis;кафе;Сакко и Ванцетти, 99, 2 этаж
56.835124;60.592798;Ситора;кафе восточной кухни;Попова, 7, 1 этаж
56.811991;60.561974;Каравай;кафе;Волгоградская, 188
56.871953;60.513328;Вечер;кафе;Паровозников, 2а
56.854844;60.606995;Наше кафе;;БЦ На Авейде 17, Азина, 24, 1 этаж
56.816082;60.58359;OROM;кафе восточно-европейской кухни;Ясная, 6, 1 этаж
56.802337;60.602785;Maestro Home Cafe;;Авиационная, 10, 1 этаж
56.81955;60.640735;Место Есть;кафе-столовая;Восточная, 45, цокольный этаж
56.972204;60.560896;Русич;кафе;Калинина, 68Б
56.932075;60.614535;У Вагифа;кафе;Космонавтов проспект, 169
56.824811;60.578894;Дока;кафе;Гурзуфская, 21, 1 этаж
56.804724;60.581573;Bahar;кафе;Хасановская, 71, 2 этаж
56.860376;60.647833;Время есть;кафе;Советская, 55, 1 этаж
56.917223;59.95875;Барбарис;кафе;Вайнера, 55, 1-2 этаж
56.87131;60.546094;Estelle;банкетный зал;Пехотинцев, 2а/1, 1 этаж
56.797782;60.632896;Готика;кафе;Белинского, 232, 1 этаж
56.855288;60.65394;Вулкан;кафе;Комсомольская, 4, 1 этаж
56.795551;60.61557;Пацха;кафе грузинской кухни;Академика Шварца, 4, 1 этаж
56.806228;60.614581;Брусника;семейное кафе;Степана Разина, 95, цокольный этаж
56.855205;60.65719;Душевная Кухня Кулибин;кафе;Кулибина, 2, 1 этаж
56.770992;60.870959;3D МАНГАЛ;шашлычная;Сибирский тракт 21 км, 5а/1
56.785665;60.608359;Хазар;кафе;8 Марта, 269, 1 этаж
56.83664;60.623309;ClearBarn;кафе здорового питания;ТЦ Crystals, Малышева, 71, 2 этаж, универмаг BOLSHOY
56.812749;60.54717;Премиум;эко-кафе;БЦ Премиум, Серафимы Дерябиной, 24, 1 этаж
56.831215;60.592931;GRAND CAFE Piaf;ресторан европейской кухни;Хохрякова, 48, 1 этаж
56.967409;60.580187;Кафе русской и узбекской кухни;;Кривоусова, 2, 1 этаж
56.796783;60.644834;Эйр Пай;кафе-пекарня;Луганская, 59/4м
56.814918;60.639945;Райхон;кафе;Мичурина, 230 к4
56.80996;60.622003;Кафе;ИП Тожибоев В.Х.;Щорса, 52г, 1 этаж
56.794114;60.773362;Ной;кафе;Белоярская, 19а
56.837715;60.649326;На задворках;кафе;Отдельный переулок, 5, 1 этаж
56.811982;60.575251;33 Коровы;трактир;Шаумяна, 83, 1 этаж
56.818006;60.538143;ЮГОСЛАВИЯ;кафе;Радуга Парк, Репина, 94, 1 этаж
56.844285;60.616654;Вьет Бамбук;кафе;БЦ Манхэттен, Мамина-Сибиряка, 101, 1 этаж
56.823645;60.591292;Петербург;кафе;Народной Воли, 19а, 1 этаж
56.87692;60.521371;ДиЯР;кафе;Маневровая, 25Б
56.890991;60.625803;IRIS lounge;кафе;Баумана, 20, цокольный этаж
56.836563;60.590861;Главный Проспект;кафе;БЦ Корин-Центр, Ленина проспект, 20а, 1 этаж
56.811216;60.632666;Хинкальная-хачапурная;кафе грузинской кухни;Щорса, 24, 1 этаж
56.831037;60.657485;Русский клуб;развлекательный центр;Библиотечная, 62а, 2 этаж
56.838669;60.594907;Буфет и пекарня;;Торговый деловой центр Европа, Ленина проспект, 25, 1 этаж
56.812354;60.609099;ХИНКАЛИ;кафе;8 Марта, 101, 1 этаж
56.973744;60.581231;Пицца Сан;служба доставки пиццы и роллов;Орджоникидзе, 16, 1 этаж
56.964267;60.614233;Дворянское гнездо;кафе;Победы переулок, 11Б
56.843035;60.610485;Joy Soul;место комфортной еды;Карла Либкнехта, 40, 1 этаж
56.880199;60.62847;Комфорт;кафе;Фронтовых Бригад, 15, 1 этаж
56.856622;60.650733;Ланч;кафе;Блюхера, 63г
56.808001;60.587332;ТАВУШ;кафе армянской кухни;Шаумяна, 23, 2 этаж
56.833816;60.598622;Чайная на Малышева;;Малышева, 42, 1 этаж
56.709984;60.733199;Трактир;кафе;Челябинский тракт 17 км, 1в
56.90774;59.930587;Провинция;кафе;Космонавтов проспект, 7, 1 этаж
56.906216;59.94433;VICTOR;гостиничный комплекс;Ватутина, 42а
56.826437;60.593637;Дом выпечки;сеть кафе-пекарен;Хохрякова, 74, 1 этаж
56.984048;60.563998;Самато;кафе и служба доставки;Юбилейная, 3, 1 этаж
56.83664;60.623309;ТАО;азиатское бистро;ТЦ Crystals, Малышева, 71, 2 этаж, напротив эскалатора
56.852742;60.612897;Мимино;кафе грузинской кухни;Мамина-Сибиряка, 10, 1 этаж
56.81335;60.593339;Эклер;кафе;Фурманова, 109, 1, 2 этаж
56.792534;60.518904;Хлеб из тандыра;кафе-пекарня;Вильгельма де Геннина, 34, 1 этаж
56.93756;60.61766;У Родника;кафе;Берёзовая, 37
56.884814;60.581334;Рай;кафе;Машиностроителей, 35, 2 этаж
56.767066;60.709986;Бриз;кафе национальной кухни;Славянская, 64
56.842677;60.645011;Вилы;кафе;Ленина проспект, 70, 1 этаж
56.869789;60.586821;Буфет;;Артинская, 22а
56.813791;60.609649;Флагман;кафе;Фрунзе, 50, 1 этаж
56.8461;60.589423;Воротнички;кафе-столовая;БЦ Президент, Бориса Ельцина, 1а, 2 этаж
56.902497;60.819053;Молодежное;кафе;Маяковского, 2/1
56.89743;60.646702;Родник;кафе;Краснофлотцев, 80, 1 этаж
56.800399;60.616924;La Бaget;кафе-пекарня;Авиационная, 63/4, 1 этаж
56.85946;60.642622;ICE;кафе;Июльская, 20/2
56.831998;60.654624;Перекресток;сеть кафе;Библиотечная, 52, 1 этаж
56.844542;60.591715;Детское кафе;;Президентский Центр, Бориса Ельцина, 3а, 3 этаж
56.832768;60.590128;Хлебное место;кофейня-пекарня;Сакко и Ванцетти, 61, 1 этаж
56.790395;60.514061;Деревня КАРАВАЙ;кафе-пекарня;Вильгельма де Геннина, 42
56.893915;60.570813;У Белой Башни;закусочная;Донбасская, 1а
56.862401;60.534792;Шахрихан;кафе;Миномётчиков, 7/1
56.816212;60.538932;Salsa;кафе итальянской кухни;Радуга Парк, Репина, 94, 1 этаж
56.790409;60.479518;Уютное кафе;;Ручейная, 55
56.833538;60.611308;Biennale;кафе;Гоголя, 15е, 2 этаж
56.871239;60.537065;Шашлычный двор;закусочная;Таватуйская, 16а
56.843254;60.641143;Матушка;кафе русской кухни;Ленина проспект, 97
56.831857;60.693565;Хаят;кафе;40-летия Комсомола, 14
56.972928;60.574272;Bellissimo;кафе-пекарня;Орджоникидзе, 22
56.885774;60.529795;Мираж;кафе;Маневровая, 41, 1 этаж
56.816738;60.540111;Garden;семейное кафе;Радуга Парк, Репина, 94, 1 этаж
56.830116;60.595623;Not Fake! Coffee & Tea;;Радищева, 21
56.825354;60.574803;Лоза;кафе;Гурзуфская, 36, 1 этаж
56.805947;60.55972;Шашлычный двор;кафе;Ясная, 37
56.816116;60.538847;BAZAR;кафе восточной кухни;Радуга Парк, Репина, 94, 1 этаж
56.817058;60.631973;Pure;кафе;БЦ Clever Park, Ткачей, 23, 2 этаж
56.832223;60.663244;Гриль;кафе;Комсомольская, 73, 1 этаж
56.885623;60.593796;Фаиза;кафе узбекской кухни;Машиностроителей, 15а
56.84152;60.580334;Витязь;;Челюскинцев, 1, 1 этаж
56.815229;60.587032;Цезарь;кафе;Ясная, 1/2, 1 этаж
56.862219;60.65058;Лорд;кафе;Сулимова, 6а, 1 этаж
56.874564;60.689892;Берег;кафе узбекской кухни;Проезжая, 98
56.757988;60.586294;Навруз;кафе;Окружная, 88, 1 этаж
56.770875;60.871565;Астхик;кафе;Сибирский тракт 21 км, 5
56.755194;60.819314;Кафе-шашлычная;;Бахчиванджи, 17а
56.907202;60.801165;СОСЕДИ;кафе;Красных Героев, 16, 1 этаж
56.899002;60.637126;Пицца Сан;служба доставки пиццы и роллов;Лобкова, 50
56.835924;60.528233;Бакинский дворик;банный комплекс;Танкистов, 12
56.841136;60.608542;Вкусно как дома;кафе;Толмачёва, 25, цокольный этаж
56.84085;60.678033;Мясо на углях №1;кафе;Владимира Высоцкого, 12в
56.843146;60.616278;Ogni;кафе;Мамина-Сибиряка, 58, цокольный этаж
56.811207;60.574718;Элтон;кафе;Воронежский переулок, 56, 1 этаж
56.839158;60.632482;Мангал;кафе турецкой кухни;Восточная, 64, цокольный этаж
56.853042;60.578336;Katerina;кафе;Машинистов, 2Б
56.782349;60.55398;Чайхана 66;;Михеева, 2
56.827941;60.542524;КишМиш;кафе;Викулова, 46/1
56.846279;60.557094;Белая ворона;кафе;Колмогорова, 3, 1 этаж
56.907489;60.602648;NEXT;кафе;Новаторов, 9, 1 этаж
56.875998;60.025848;У Али;кафе;Талица, 111а
56.846851;60.559109;Фазан;кафе;Колмогорова, 5/2, 1 этаж
56.782942;60.653167;Дадаш;кафе;Щербакова, 45, 1 этаж
56.803735;60.512793;Привал охотника;кафе;Анатолия Муранова, 18, 1 этаж
56.781357;60.533497;Шашлычная;ИП Микаелян Ю.С.;Чкалова, 250а
56.902772;60.81103;Адаманд;кафе армянской и грузинской кухни;Загвозкина, 99/1, 2 этаж
56.698327;60.83078;Трактир;;Калинина, 2
56.906999;59.944474;Уральские Пельмени;закусочная;Ватутина, 44, 1 этаж
56.818381;60.615563;Сказы Бажова;студенческое кафе;Большакова, 65, 1 этаж
56.832331;60.617404;SMART-CAFE;кафе правильного питания;Красноармейская, 64, 2 этаж, фитнес-клуб World Class
56.903002;59.948773;Amsterdam;арт-кафе;Чкалова, 44, 1 этаж
56.821395;60.586524;Маракана;кафе-бар;Московская, 70, цокольный этаж
56.714813;60.826603;Эдан;кафе;Пролетарская, 76а, 1 этаж
56.761261;60.750811;Ладушки у бабушки;кафе;Черняховского, 86/12, 2 этаж
56.805179;60.630769;Олива;кафе;БЦ Штольц, Машинная, 42а, 1 этаж
56.681095;60.582547;У Ефимыча;кафе-закусочная;Кузнецова, 1Б
56.813291;60.572077;Кафе-блинная;;Шаумяна, 87
56.830573;60.548209;Талисман;закусочная;Крауля, 63, 2 этаж
56.851917;60.640736;Mi Ami;кафе;ТЦ Аида, Блюхера, 39, 1 этаж
56.831682;60.567213;ПерекусCity;кафе самообслуживания;Мельникова, 38, 1 этаж
56.875233;60.655073;Для своих;кафе;Шефская, 3г/7, 1 этаж
56.860989;60.550568;Шашлычная;ИП Степанян С.М.;Бебеля, 136/3
56.845229;60.61793;БУЛКИ народов мира;кафе-пекарня;Луначарского, 80, 1 этаж
56.841153;60.695531;Жарден;кафе;40-летия Комсомола, 1ж, 3 этаж
56.683256;60.838698;ПанКот;кафе;ТЦ Шишкин парк, Новая, 2а
56.911688;60.629517;Закусочная;;Совхозная, 20/1, 1 этаж
56.824312;60.606841;Три ватрушки;;Степана Разина, 2, 1 этаж
56.810733;60.566518;Пятница;кафе;Ясная, 35, цокольный этаж
56.870393;60.651763;Авангард;кафе;Данилы Зверева, 31Б, 1 этаж
56.817637;60.58624;Радио Пилот;кафе;Посадская, 79, 1 этаж
56.835962;60.59576;Дружба;кафе-столовая;Театральный переулок, 7а, 1-2 этаж
56.90637;59.942651;Кухня для друзей;кафе;ДК ОАО ПНТЗ, Ватутина, 45а, цокольный этаж
56.831745;60.624228;Omelette;кафе;Карла Маркса, 40, цокольный этаж
56.906995;59.953741;Бисквит;семейное кафе;Ленина, 2Б
56.753685;60.694302;Жаклин;кафе;AVS Химмаш, Грибоедова, 13, 1 этаж
56.991445;60.481481;Lionpizza;кафе;Советская, 45, 1 этаж
56.858178;60.634045;Сказка;кафе;Июльская, 39/1
56.86573;60.671947;Акварель;кафе;БЦ Блюхера 88, Блюхера, 88, 1 этаж
56.695925;60.799017;Русь;кафе-пельменная;Космонавтов, 17, 3 этаж
56.885762;60.594912;Эдем;кафе;Машиностроителей, 13а
56.90141;60.76832;Кафе;;БЗСК посёлок, 15а
56.856289;60.598804;Сербия Гриль;кафе;ТЦ Свердловск, Героев России, 2, 1 этаж
56.834582;60.617238;Премьер;кафе;Гостиница Премьер Отель, Красноармейская, 23, 1 этаж
56.866424;60.559293;Пышка;кафе-столовая;Софьи Перовской, 119, 1 этаж
56.834097;60.644845;Версаль;банкетный зал;БЦ Aston, Вишнёвая, 35, цокольный этаж
56.756622;60.590427;Кафе домашней кухни;ИП Вандышев А.В.;Окружная, 5/1, 1 этаж
56.890815;60.619271;Первая осетинская пироговая;кафе;Бабушкина, 31, 1 этаж
56.683334;60.790814;Лагуна;кафе;Советская, 155, 1, 2 этаж
56.857168;60.598442;J.doggs;ресторан быстрого питания;ТЦ Свердловск, Героев России, 2, 8Б помещение, 1 этаж
56.902831;60.814902;BeinZone;бургер-бар;Строителей, 9Б, 1 этаж
56.833683;60.597407;Суши Маркет;кафе японской кухни;ДЦ Малышева 36, Малышева, 36, 1 этаж
56.8552;60.584376;Закат;закусочная;Стрелочников, 1в
56.913435;60.820319;Птичья горка;кафе;Спортивная, 6а, цокольный этаж
56.823836;60.627295;Family;кафе;Обороны площадь, 1
56.75046;60.800689;Балкан Гриль экспресс;кафе;Аэропорт Кольцово, Бахчиванджи площадь, 1, терминал А, 2 этаж
56.831342;60.588393;Всегда Вкусно;кафе;Центральный рынок переулок, 6, 1 этаж
56.982132;60.561888;Цыплята табака;кафе;Юбилейная, 7, 1 этаж
56.881908;60.632182;Жизнь;кафе-бар;О`КЕЙ, Бабушкина, 2а, 2 этаж
56.845983;60.618501;Марионетка;кафе;Луначарского, 87, 1 этаж
56.859471;60.55334;Цезарь777;кафе;Ольховская, 22
56.848578;60.571982;Grot;студенческое кафе;Одинарка, 1, цокольный этаж
56.835815;60.600097;ТриО;кафе;8 Марта, 15, 1 этаж
56.784983;60.534976;Наше Место;кафе;Краснолесья, 49, 1 этаж
56.924324;60.613674;Бистро;;Космонавтов проспект, 106/1
56.78762;60.78223;У Камина;закусочная;Латвийская, 2а
56.772281;60.585429;1000 и одна ночь;кафе-закусочная;Симферопольская, 26а, 1 этаж
56.803039;60.628678;Сытая семейка;пельменная;Переходный переулок, 2, 1 этаж
56.843914;60.620092;Гусарская баллада;закусочная;Окружной дом офицеров, Первомайская, 27, 2 этаж
56.702561;60.842478;Гюмри;шашлычная;Рабочая, 123а
56.71304;60.829468;Хуторок;кафе;Пролетарская, 82Б/3
56.775553;60.609559;DALIDA;кафе;Сухоложская, 9, 3 этаж
56.89312;60.584546;Фауст;кафе;40 лет Октября, 25, цокольный этаж
56.913861;59.935922;Арарат;кафе;Ленина, 31
56.876988;60.021648;Усадьба;кафе;Новотрубников переулок, 14/1, 1 этаж
56.864707;60.599359;Андижан;кафе;Завокзальная, 26/1
56.769424;60.543412;Андижан;кафе восточной кухни;Амундсена, 125т
56.832331;60.617404;Елисей;кулинар-кафе;Красноармейская, 64, 2 этаж
56.75546;60.703519;Гриль-клуб;;Грибоедова, 25
56.774343;60.645968;FamilyHouse;кафе;Зимняя, 27, 2 этаж
56.908487;59.954043;Комильфо;кафе;Данилова, 2а, 1 этаж
56.856774;60.605139;Югославия гриль;кафе;Челюскинцев, 25/6
56.809852;60.710627;Скатерть-самобранка;кафе;Волчанский переулок, 2а, 1 этаж
56.983657;60.568121;Луч;кафе;Уральских Рабочих, 36, 1 этаж
56.813528;60.618059;Ланч Холл;кафе;Фрунзе, 35а, 2 этаж
56.755911;60.698072;ROLLFM;пиццерия;Профсоюзная, 26, цокольный этаж
56.833799;60.585936;Шейк;кафе;Шейнкмана, 30, 1 этаж
56.823094;60.618951;Квартал Pro;кафе;Белинского, 83, 1 этаж
56.906709;60.811568;У Камала;кафе;Строителей, 3а/1
56.857539;60.604977;Пельменная;кафе;Челюскинцев, 27, 1 этаж
56.767393;60.554997;ВИВА;кафе-столовая;Предельная, 57/3, 1 этаж
56.903749;59.958169;Старая таверна;кафе;Отель Первоуральск, Ильича проспект, 28, 1 этаж
56.764703;60.817442;Арго;кафе-бар;Испытателей, 24а
56.809989;60.62643;Хорошее Место;кафе;Щорса, 17, 1 этаж
56.83644;60.684677;Байрам;чайхана;Сыромолотова, 21, 1 этаж
56.858166;60.607344;Шашлычная №15;закусочная;Вокзальная, 23а
56.85495;60.660464;Урал;кафе;Центр культуры Урал, Студенческая, 3, 1 этаж
56.903399;60.597334;GRILL MIX;кафе;40 лет Октября, 71
56.902352;59.940294;Космос;кафе;Физкультурников, 8, 1 этаж
56.814122;60.641805;Златибор;кафе сербской кухни;Мичурина, 230 к25
56.847119;60.595835;Дивс;кафе;ДИВС, Ерёмина, 10, 1 этаж
56.905724;59.953612;Fireside Inn;кафе;Ильича проспект, 29а к11а
56.818;60.610467;Bon Appetit;студия кулинарного искусства;Большакова, 75, 102 офис, 10 этаж
56.812391;60.595942;Солянка;кафе;Фрунзе, 96, 1 этаж
56.86264;60.535594;Долина;кафе;Миномётчиков, 24в
56.845754;60.639423;Кафе на Первомайской;;Первомайская, 75, цокольный этаж
56.74985;60.976356;Лаззат;кафе;Тюменский тракт 28 км, 1а
56.864312;60.670408;Атриум;банкетный зал;БЦ Блюхера 58, Блюхера, 58, 3 этаж
56.903484;59.963176;Арагви;кафе;Ильича проспект, 45/1
56.79803;60.488486;Barin Bar;кафе;Удельная, 4
56.845584;60.640678;Метрополия;кафе;РЦ Метрополия, Первомайская, 75а, 1 этаж
56.771857;60.598055;Варзоб;кафе;Новосибирская, 103, 1 этаж
56.697625;60.832866;Мария;кафе-пекарня;1 Мая, 11, 1 этаж
56.793023;60.509359;Буль Вар;кафе-пельменная;Павла Шаманова, 52
56.908169;59.951119;Про Кофе;кафе;Ленина, 11
56.796147;59.922597;Фламбе;арт-кафе;БЦ Маяк, Павла Зыкина, 32, 1 этаж
56.744809;60.694336;Варна;кафе-подворье;Димитрова, 17е, цокольный этаж
56.840331;60.629783;Жемчужина;кафе;Гостиница Урал, Мичурина, 57, 1 этаж
56.868057;60.534618;Глория;кафе;Седова проспект, 27, 1 этаж
56.755112;60.704406;На Грибоедовской;трактир;Грибоедова, 25, 1 этаж
56.818872;60.613386;Дело Вкуса;кафе;БЦ Корин-Центр, Большакова, 70, 3 этаж
56.81699;60.663336;Чемодан;кафе;РЦ Луна, Сибирский тракт, 34Б, 2 этаж
56.909678;60.824166;Riccone;кафе;Гагарина, 12, 1 этаж
56.904234;60.560915;Лесная сказка;кафе;Кировградская, 101
56.856109;60.548811;Славяночка;кафе;Марата, 17, 1 этаж
56.802372;59.915259;Толстая креветка;кафе;Азина, 69
56.809845;60.706095;Снеди;закусочная;Сибирский тракт 8 км, к7/1
56.778427;60.562107;Автопилот;кафе;Академика Вонсовского, 1, 1 этаж
56.793264;60.520647;Регистан;кафе восточной кухни;ТРЦ Академический, Краснолесья, 133, 4 этаж
56.86643;60.532735;Баракат;кафе;Техническая, 34/2
56.680716;60.847794;Каприз;кафе;Новая, 38
56.774033;60.81907;Хлеб соль;кафе грузинской кухни;Реактивная, 66а
56.869262;60.518678;ЛЮКО;кафе;Миномётчиков, 29, 1 этаж
56.843797;60.697247;Шашлык от Вано;кафе;Владимира Высоцкого, 45/14
56.856289;60.598804;Dario;пиццерия;ТЦ Свердловск, Героев России, 2, 51 помещение, 3 этаж, около Мои документы
56.908429;59.963243;Barocco;кафе;Вайнера, 20, 1 этаж
56.810577;60.791028;Уралочка;;Кольцевая автодорога (ЕКАД) 12 км, 1
56.907381;60.806186;Любимое местечко;кафе;Театральная, 3
56.861245;60.643978;Блиц;закусочная;Сулимова, 27
56.758343;60.606373;7 Братьев;кафе;Косьвинский переулок, 34, 1 этаж
56.90523;59.938037;Абажур;кафе;Ильича проспект, 11, 1 этаж
56.697418;60.535502;Франки;кафе быстрого обслуживания;Будённого, 87Б
56.8643;60.65323;Пионерский;кафе;Данилы Зверева, 20
56.909128;59.962015;Stendhal;арт-кафе;Вайнера, 17
56.904617;59.941255;Погребок;кафе;Ватутина, 39
56.798066;60.598788;Глухомань;кафе;Московская, 287, 1 этаж
56.75119;60.808564;Екатерина;кафе;Гостиница Лайнер Аэропорт Отель, Бахчиванджи площадь, 3, 1 этаж
56.836238;60.594569;пЕльмень;;ТЦ Успенский, Вайнера, 10, 5 этаж
56.911254;60.802653;Иверия;кафе;Исакова, 1
56.838712;60.596237;Компот;столовая;Володарского переулок, 3, 1 этаж
56.867156;60.648658;Шато Леон;кафе;Вилонова, 45 лит Е, 2 этаж
56.857963;60.607168;Индира;кафе-закусочная;Челюскинцев, 29, 1 этаж
56.853819;60.605589;Лория;кафе;Свердлова, 58, 1 этаж
56.761261;60.750811;Пломбир;кафе;Черняховского, 86/12, 2 этаж
56.806132;59.915883;Уралочка;кафе;Энгельса, 44
56.887378;60.592144;Малибу;кафе;Орджоникидзе проспект, 4
57.017183;60.544883;Grand Horse;кафе;Огородная, 27
56.913076;60.611155;Алекс;кафе;Космонавтов проспект, 73, цокольный этаж
56.741876;60.608392;Казан;кафе;Бисертская, 1а, цокольный этаж
56.755408;60.816123;Кофейня;;Спутников, 1а, 2 этаж
56.83326;60.582345;Shambala;кафе;ТРЦ Алатырь, Малышева, 5, 6 этаж
56.825794;60.603078;Forumcafe;;УрГЭУ, 8 Марта, 62, 1 этаж
56.906729;59.952269;Cafe V & A Pizza;кафетерий-пиццерия;Ленина, 5а/1, 1 этаж
56.873579;60.50731;Ясамал;кафе;Строителей, 43а, 2 этаж
56.853229;60.549129;Ле Шале;кафе;ТРЦ Карнавал, Халтурина, 55, 3 этаж
56.883727;60.497014;На Семи ключах;закусочная;Ангарская, 20/1
56.84856;60.266694;На опушке;кафе;Пушкина, 148/1
56.750473;60.801364;Skymania;кафе;Аэропорт Кольцово, Бахчиванджи площадь, 1, терминал А, 1 этаж
56.839739;60.598583;Родня;кафе;8 Марта, 5, 1 этаж
56.84194;60.613656;Мозаика;кафе;Тургенева, 13, 1 этаж
56.909434;59.944802;ЭЛЬ-ГУНА;кафе-бильярдная;Ватутина, 58
56.902225;59.941038;Суши н Ролла;сеть ресторанов японской кухни;Герцена, 20, 1 этаж
56.829761;60.614182;Онегин;кафе;Онегин Плаза, Розы Люксембург, 49, 1 этаж
56.846698;60.657149;Уют;кафе;Первомайская, 104, цокольный этаж
56.813383;60.590771;Парус;кафе;Московская, 195, 1 этаж
56.901394;59.94791;Central cafe;;Чкалова, 41, 1 этаж
56.836902;60.59184;FEELING art & coffee;кафе;Ленина проспект, 22, 1 этаж
56.789746;59.905487;Палермо;кафе;Интернационалистов, 42 к6, 1 этаж
56.811422;60.542208;Домашняя кухня;закусочная;Зоологическая, 3
56.796213;59.914717;Home Cook;семейное кафе;Цветников, 48, 1 этаж
56.846334;60.643556;Ланчбург;столовая;Гагарина, 8, 201а офис, 2 этаж
56.799332;60.629599;Лаврушка;буфет;Белинского, 222, 3 этаж, 2 подъезд
56.834974;60.611682;Гастрономия;кафетерий;ТЦ Покровский пассаж, Розы Люксембург, 4, 1 этаж
56.844405;60.600584;Динамо;кафе;СК Динамо, Ерёмина, 12, 1 этаж
56.67659;60.806478;Советская;пельменная;Колхозная, 18, 2 этаж
56.904947;59.952491;City;арт-кафе;ТРЦ Строитель, Ильича проспект, 31, цокольный этаж
56.805693;59.932523;У дяди Феди;кафе;Ленина, 57
56.784004;60.735909;Славянское;кафе;Варшавская, 26, 2 этаж
56.788892;60.775689;Олимп;кафе;КСК Олимп, Латвийская, 19, 1 этаж
56.884606;60.585667;CoffeeCat;кофейня;Машиностроителей, 29, 1 этаж
;;Русский Остров;база отдыха;Екатеринбург
56.903263;59.958388;Первоуральск;ресторан-кафе;Отель Первоуральск, Ильича проспект, 28, 1 этаж
56.883729;60.517667;Шарм;кафе;Ангарская, 64
56.867708;60.565802;Пурмарили;кафе;Автомагистральная, 4, 1 этаж
56.874889;60.553872;Забава;кафе;Бебеля, 184, 2 этаж
56.793411;60.520481;Матрешки;кафе;ТРЦ Академический, Краснолесья, 133, 4 этаж
56.861564;60.537247;Ханой;кафе;ТЦ Ханой, Миномётчиков, 3, 3 этаж
56.94045;60.734857;Динамитка;кафе;Кольцевая автодорога (ЕКАД) 23 км, 1, 1 этаж
56.890935;59.975929;КардиналЪ;кафе;Вокзальная, 1Б
56.905026;59.958528;Счастье есть;кафе-кулинария;Ильича проспект, 35, 1 этаж
56.738504;60.971653;Два поварёнка;кафе;Советская, 24а
56.904229;60.821933;Пельмешка_BRZ;кафе;Косых, 5
56.893978;60.643483;Спорт;кафе;Бассейн Калининец, Краснофлотцев, 48Б
56.982497;60.566797;Бездна;кафе;Чистова, 9а, 1 этаж
56.809978;60.712626;Вкусно Здесь;;Волчанский переулок, 1а
56.964766;59.819412;Аленушка;кафе;Свободы площадь, 2а
56.987544;60.47101;Волна;кафе;Калинина, 14, 1 этаж
56.899436;60.609906;Чайная;кафе;Ильича, 69, 1 этаж
56.974819;60.546789;Кафешечка;кафе;Сварщиков, 1в
56.853027;60.597711;DEXY;кафе;Челюскинцев, 86
56.818886;60.667877;ТЭД;кафе;БЦ Октябрьский, Сибирский тракт, 57, 1 этаж
56.911543;60.58687;Пельмень;кафе-пельменная;Коммунистическая, 119, 1 этаж
56.70636;60.078222;Уют;кафе домашней кухни;Культуры, 1а
56.967358;60.563778;Закусочная у Гафара;кафе;Феофанова, 25а
56.77523;60.824066;ПЕЛЬМЕШКА;кафе домашней кухни;Реактивная, 81
56.743159;60.939771;Висол;кафе;Высоцкого, 2а
56.877206;60.61999;Хуторянка;кафе-закусочная;Фронтовых Бригад, 14г, 1 этаж
56.775947;60.553107;Краснолесье;кафе;БЦ Инновационный, Амундсена, 107, 1 этаж
56.87067;60.612066;Лакомка;кафе;Космонавтов проспект, 18/54, цокольный этаж
56.722379;60.772281;Русская кухня;кафе-закусочная;Гагарина, 1
56.803219;59.927966;Жи-Ши;суши-бар;Карла Либкнехта, 31
56.830315;60.640542;Кафе домашней кухни;ИП Кощеева В.Н.;Куйбышева, 80/1
56.849388;60.665123;Сытый двор;кафе;Автоматики переулок, 4, 1 этаж
56.84479;60.58774;Исеть;кафе;Бориса Ельцина, 6/2
56.792469;59.923966;Традиция;кафе;Отель Металлург, Павла Зыкина, 33, 1 этаж
56.792381;59.911437;Восточный пир;кафе;Автостанция Ревда, Российская, 19
56.89483;59.975176;Евразия;сеть кафе быстрого питания;Торговая, 1а киоск
56.830243;60.597398;TomYumBar;;ТРЦ Гринвич, 8 Марта, 46, 3 этаж
57.013907;60.549083;На Поляне;кафе;Верхотурский тракт 32 км, 1а
56.835825;60.606934;Кафе;ИП Петросян Л.А.;Горького, 33, 1 этаж
56.874815;60.29536;SOVA;кафе;Юбилейная, 5а/1
56.761247;60.565868;Кураж;кафе;Городская, 2д, 2 этаж
56.885133;60.637896;Счастье есть;буфет;Старых Большевиков, 2а к1, 1 этаж
56.893545;60.621658;Буфет;;Стачек, 29, 1 этаж
56.6879;60.850022;Ромашки;кафе;Ленина, 15, 1 этаж
56.761128;60.803367;Инки-Пинки;кафе;Бахчиванджи, 2 лит А9, 2 этаж
56.873794;60.50663;GOGOSHAR;служба доставки;Строителей, 43а
56.829707;60.616169;Кафе;;Белинского, 56, 1 этаж
56.831641;60.66265;СТАРЫЙ ГОРОД;кафе;Комсомольская, 72а, 1 этаж
56.817215;60.63904;Пельменная;;Мичурина, 230 к3
56.802835;59.922972;Восточная кухня;кафе;Спартака, 1, 1 этаж
56.74536;60.60471;Наш двор;кафе;Селькоровская, 114в
56.838866;60.55634;Успенское;кафе;Кирова, 65/7
56.81572;60.682802;Мини-гостиница;ИП Кунгурова Н.А.;Сибирский тракт 7 км, ст1142/2
56.761103;60.698326;Кафе;;Дагестанская, 2а
56.985026;60.455419;Кафе;;ДК Среднеуральск, Набережная, 8а, цокольный этаж
56.856482;60.590095;Народный;кафетерий;Стрелочников, 19а, 1 этаж
56.866723;60.65051;Закусочная;;Данилы Зверева, 23Б, 1 этаж
56.90588;59.946195;Трали-Вали;семейное кафе;1 Мая, 9а, 2 этаж
56.808058;60.611572;Snack time;закусочная;Автовокзал Южный, 8 Марта, 145, 1 этаж
56.863119;60.53853;Шахритус;кафе;Техническая, 23/2, 1 этаж
56.760239;60.737558;Бархан;кафе;Альпинистов, 77 лит Е, 1 этаж
56.690687;60.753179;Dobson;кафе;Челябинский тракт 25 км, лит Е
56.896532;59.939982;Витаминка;кафе;Металлургов, 7/1, 1 этаж
56.79331;59.909533;Кировское;кафе;Российская, 28
56.845229;60.615643;Сацебели;кафе;Мамина-Сибиряка, 52, 1 этаж
56.773272;60.623255;Рандеву;кафе-бар;Самолётная, 55, 1 этаж
56.888552;60.595009;Эллан;кафе;Ильича, 9, 1 этаж
56.905058;59.938946;Welcome;кафе;ТЦ Мегаполис, Ильича проспект, 13а, 4 этаж
56.713311;60.833064;Узбекская чайхана;кафе;Пролетарская, 82/13
56.909871;59.909092;Малахит;кафе;Динасовское шоссе  3 км, ст25, 2 этаж
56.808058;60.611572;БарХан;закусочная;Автовокзал Южный, 8 Марта, 145, 1 этаж
56.74889;60.930976;Огонек;закусочная;Свердлова, 1г
56.863743;60.538474;Гранат;кафе;Техническая, 23Б, 1 этаж
56.727044;60.75336;Cafe Time;кафе;Свердлова, 42а, предприятие Стройкомплек
56.863636;60.538871;Navat;кафе;Техническая, 23а
56.839283;60.624269;Fiesta;кафе;Ленина проспект, 52а, 1 этаж
56.826954;60.599544;Нигора;сеть кафе узбекской кухни;Вайнера, 55
56.850607;60.55598;Бургер Кинг;сеть ресторанов быстрого питания;Бебеля, 37
56.833578;60.593162;Рататуй;кафе;Малышева, 25, 1 этаж
56.837029;60.568156;ODjah;кафе домашней кухни;Нагорная, 12, 1 этаж
56.842906;60.646958;Додо Пицца;сеть пиццерий;Ленина проспект, 72
56.807349;60.602139;Room-Cafe;кафе;Щорса, 105
56.833583;60.596483;Vietmon;кафе;ДЦ Малышева 36, Малышева, 36, 1 этаж
56.811134;60.60993;Штолле;сеть пироговых;8 Марта, 123, 1 этаж
56.843026;60.642081;Большие Тарелки;кафе для всех;Ленина проспект, 99, 1 этаж
56.836817;60.621245;Бургер Кинг;сеть ресторанов быстрого питания;Луначарского, 136, 1 этаж
56.837078;60.59361;Люблю и Благодарю;кафе;Вайнера, 8, 2 этаж
56.835545;60.546454;Рататуй;кафе;Татищева, 77, 1 этаж
56.788644;60.514282;Замес;современная пельменная;Вильгельма де Геннина, 47, 1 этаж
56.798015;60.617593;Додо Пицца;сеть пиццерий;Юлиуса Фучика, 3
56.807349;60.602139;Room-Cafe;кафе;Щорса, 105
56.83907;60.632414;ЗОЛОТОЙ БАМБУК;кафе вьетнамской кухни;Восточная, 64, 1 этаж
56.84157;60.646342;Vietmon;кафе;Гагарина, 35, 1 этаж
56.843234;60.643929;Штолле;сеть пироговых;Ленина проспект, 101, 1 этаж
56.904083;60.6006;Большие Тарелки;кафе для всех;ТЦ Кировский Люкс, Восстания, 50, 2 этаж
56.861554;60.613516;Бургер Кинг;сеть ресторанов быстрого питания;Космонавтов проспект, 2, гипермаркет Мегамарт
56.898741;60.592579;Рататуй;кафе;ТЦ Октябрь, Уральских Рабочих, 54, 2 этаж
56.79672;60.627923;Дюжина;сеть пельменных;ТЦ Дирижабль, Академика Шварца, 17, 1 этаж
56.790562;60.515761;Додо Пицца;сеть пиццерий;Вильгельма де Геннина, 42
56.862337;60.622209;Пельменная №1;;Уральская, 6
56.806818;60.612305;PingPong;кафе китайской кухни;ТРЦ Мегаполис, 8 Марта, 149, 5 этаж
56.854482;60.556927;Штолле;сеть пироговых;Опалихинская, 44, 1 этаж
56.796408;60.613747;Большие Тарелки;кафе для всех;Ботаника Молл, Академика Шварца, 1, 2 этаж
56.750189;60.803107;Дюжина;сеть пельменных;Аэропорт Кольцово, Бахчиванджи площадь, 1
56.839929;60.651017;PingPong;кафе китайской кухни;Малышева, 132, 1 этаж
56.761272;60.814831;Перекресток;сеть кафе;Авиаторов, 1, 1 этаж
56.839721;60.554807;Деревня КАРАВАЙ;кафе-пекарня;Кирова, 28, 1 этаж
56.858328;60.605183;Бургер Кинг;сеть ресторанов быстрого питания;Екатеринбург-Пассажирский, Вокзальная, 22
56.854829;60.558308;Рататуй;кафе;Опалихинская, 40, 1 этаж
56.897403;60.613703;Додо Пицца;сеть пиццерий;Космонавтов проспект, 31а, 1 этаж
56.76258;60.714614;Дадаш;кафе;Дагестанская, 34/1
56.980518;60.551085;Большие Тарелки;кафе для всех;ТЦ Куприт, Успенский проспект, 56, 2 этаж
56.823955;60.50582;PingPong;кафе китайской кухни;МеГа, Металлургов, 87, 1 этаж
56.874463;60.658501;Авангард;кафе;Шефская, 3а, 1 этаж
56.838818;60.590581;Жизнь;кафе-бар;Антона Валека, 15, 1 этаж
56.834708;60.681681;Бургер Кинг;сеть ресторанов быстрого питания;ТЦ Кировский, Сыромолотова, 22, 1 этаж
56.838115;60.610899;Додо Пицца;сеть пиццерий;Ленина проспект, 38а
56.802688;59.936346;Уралочка;кафе;Карла Либкнехта, 2, 1 этаж
56.979877;60.548748;CoffeeCat;кофейня;Успенский проспект, 125, 212 офис, 2 этаж
56.896681;59.942189;КардиналЪ;кафе;Ватутина, 20, 1 этаж
56.711889;60.088062;Уют;кафе домашней кухни;Калинина, 1е, 2 этаж
56.801994;59.931495;Кировское;кафе;Ленина, 34а, 2 этаж
56.826853;60.597942;Бургер Кинг;сеть ресторанов быстрого питания;Куйбышева, 45
56.826743;60.604973;Додо Пицца;сеть пиццерий;8 Марта, 43а
56.885709;60.583436;Бургер Кинг;сеть ресторанов быстрого питания;22 Партсъезда, 2
56.796585;60.622216;Бургер Кинг;сеть ресторанов быстрого питания;Академика Шварца, 15, 1 этаж
56.833773;60.600579;Бургер Кинг;сеть ресторанов быстрого питания;Малышева, 44, 1 этаж
56.806929;60.613245;Бургер Кинг;сеть ресторанов быстрого питания;ТРЦ Мегаполис, 8 Марта, 149, 1 этаж
56.836517;60.596386;Бургер Кинг;сеть ресторанов быстрого питания;Универмаг Пассаж, Вайнера, 9, 4 этаж
56.799793;60.593879;Бургер Кинг;сеть ресторанов быстрого питания;Московская, 200, 1 этаж
56.833067;60.581769;Бургер Кинг;сеть ресторанов быстрого питания;ТРЦ Алатырь, Малышева, 5, 4 этаж
56.791768;60.645621;Бургер Кинг;сеть ресторанов быстрого питания;Щербакова, 2к, 1 этаж
56.829869;60.599009;Бургер Кинг;сеть ресторанов быстрого питания;ТРЦ Гринвич, 8 Марта, 46, 3 этаж
56.881908;60.632182;Бургер Кинг;сеть ресторанов быстрого питания;О`КЕЙ, Бабушкина, 2а, 2 этаж
56.833358;60.596565;Бургер Кинг;сеть ресторанов быстрого питания;ДЦ Малышева 36, Малышева, 36, 1 этаж
56.863826;60.631026;Бургер Кинг;сеть ресторанов быстрого питания;ТРЦ Парк Хаус, Сулимова, 50, 3 этаж
56.793338;60.519921;Бургер Кинг;сеть ресторанов быстрого питания;ТРЦ Академический, Краснолесья, 133, 4 этаж
56.797356;60.579552;Бургер Кинг;сеть ресторанов быстрого питания;ТЦ Параход, Амундсена, 62
56.82385;60.505011;Бургер Кинг;сеть ресторанов быстрого питания;МеГа, Металлургов, 87, 1 этаж
56.817838;60.538464;Бургер Кинг;сеть ресторанов быстрого питания;Радуга Парк, Репина, 94, 0 этаж
56.816127;60.539796;Бургер Кинг;сеть ресторанов быстрого питания;Радуга Парк, Репина, 94, 1 этаж
56.904243;60.598724;Мангалыч;киоск по продаже фастфудной продукции;40 лет Октября, 75 киоск
56.799613;60.595054;BURUM GRILL;;Николая Островского, 1/1
56.823935;60.61888;У Аро;киоск по продаже фастфудной продукции;Декабристов, 51/2
56.800051;60.573727;MANGAL MIA;бистро;Академика Бардина, 40/4
56.8233;60.503556;IKEA Екатеринбург;бистро;МеГа, Металлургов, 87, 1 этаж
56.826642;60.599571;ВКУС УЛИЦ;ресторан;Куйбышева, 32Б
56.838268;60.633507;Хачапурная №1;;Восточная, 7е
56.831576;60.593352;Eat And Go;киоск по продаже фастфудной продукции;Хохрякова, 35 киоск
56.840581;60.652977;mr.Chef;;Малышева, 123/4
56.856855;60.605268;Kebab KING;сеть кафе и киосков;Челюскинцев, 25/6
56.8403;60.653495;Марокканская шаверма;сеть магазинов и киосков по продаже фастфудной продукции;Малышева, 134а
56.854354;60.644421;НЕ турецкая кухня;киоск фастфудной продукции;Блюхера, 47Б/1
56.862358;60.633421;СуриаХаус;кафе быстрого питания;Сулимова, 46/1
56.981223;60.546923;Шашлык off;киоск по продаже фастфудной продукции;Успенский проспект, 127а киоск
56.827055;60.601009;БигБург;сеть магазинов фастфудной продукции;Куйбышева, 55/1
56.858811;60.620661;Магазин по продаже фастфудной продукции;;Смазчиков, 2Б
56.814003;60.58861;Честный Бургер;кафе;Фурманова, 124/1
56.834824;60.568127;ПРОСТО/PRO БУРГЕРНАЯ;;Татищева, 47а, алкомаркет #FRIDAY
56.809795;60.623407;Шаурма по-царски;киоск по продаже фастфудной продукции;Белинского, 143 киоск
56.786229;60.630702;Магазин фастфудной продукции;;Водительский проезд, 20/2
56.839553;60.57033;Doner House;закусочная;Верх-Исетский бульвар, 25/2
56.824609;60.61809;ёБургер;;Декабристов, 20Б
56.785619;60.606572;Doner kebab;магазин фастфудной продукции;8 Марта, 212/1
56.836652;60.594347;#ШавермаБрат;сеть киосков и кафе по продаже фастфудной продукции;Вайнера, 10/1
56.892968;60.613912;Kebab KING+;сеть кафе и киосков;Кузнецова, 23/6 киоск
56.843214;60.650977;Еблин;;Мира, 19Б киоск
56.861229;60.54794;Food shock;магазин по продаже фастфудной продукции;Техническая, 10/1
56.785546;60.605795;Шашлычная;ИП Рахимова М.М.;8 Марта, 212/2
56.85643;60.653673;Шашлычная;;Комсомольская, 2д
56.84549;60.618066;Киоск по продаже фастфудной продукции;;Луначарского, 78/1
56.861034;60.647173;Дело тонкое;;Сулимова, 21
56.894313;60.619385;Киоск по продаже фастфудной продукции;;Красных Командиров, 3/1 киоск
56.835826;60.594839;White Star;кафе-пекарня;Вайнера, 12, 1 этаж
56.901035;60.616873;I love kebab;;Старых Большевиков, 86/2
56.808001;60.587332;Магазин шашлыка на вынос;;Шаумяна, 23, 1 этаж
56.806194;60.556453;Восточная кухня;магазин по продаже фастфудной продукции;Академика Бардина, 15/1
56.841133;60.62622;Дядя Дёнер;сеть кафе быстрого питания;Ленина проспект, 75/1
56.893184;60.61461;KebabAzia;;Космонавтов проспект, 56а
56.832021;60.544694;Кхаласар;магазин фастфудной продукции;Викулова, 38/3
56.818462;60.594092;La pizza Unica;;Шейнкмана, 123, 1 этаж
56.834572;60.69188;СУШИ ТОЧКА;магазин;Сыромолотова, 34, 1 этаж
56.822217;60.57115;Турецкий Doner Kebab;магазин фастфудной продукции;Посадская, 24/1
56.796902;60.629184;Шашлык House;;Академика Шварца, 17/9 киоск
56.809075;60.548867;ШаурМаня;магазин фастфудной продукции;Академика Бардина, 1/1
56.899141;60.613526;#Лаваш;магазин фастфудной продукции;ТК Омега, Космонавтов проспект, 41, 1 этаж
56.834714;60.688711;Веселый ХотДог;сеть предприятий быстрого питания;Сыромолотова, 28а/5
56.752195;60.816979;Шиш Кебаб;шашлычная;Бахчиванджи, 28/1
56.840573;60.656564;Burrito;киоск по продаже фастфудной продукции;Малышева, 138 киоск
56.973631;60.576928;HOT BULL DOG;киоск по продаже фастфудной продукции;Орджоникидзе, 18 киоск
56.817476;60.606425;Мега Шаурма;магазин по продаже фастфудной продукции;8 Марта, 86в
56.860413;60.618285;Закусочная;;Трамвайный переулок, 13Б
56.836122;60.600023;#ГОСТ;киоск по продаже фастфудной продукции;8 Марта, 15/3 киоск
56.835248;60.594023;Азия Шаурма;киоск по продаже фастфудной продукции;Попова, 1Б киоск
56.755096;60.706608;МАМА, Я ПОЕЛ;бургерная;Грибоедова, 26, 1 этаж
56.786463;60.631246;Е001ДА;магазин по продаже фастфудной продукции;Водительский проезд, 20/3
56.795479;60.578824;Вкусняшка;киоск по продаже шаурмы, шашлыка и кондитерских изделий;Амундсена, 69/3
56.801263;60.585685;От души для души;закусочная;Амундсена, 53/1
56.841944;60.637107;Grill meat;киоск по продаже фастфудной продукции;Ленина проспект, 60/1
56.870343;60.551771;Киоск по продаже фастфудной продукции;;Бебеля, 162/3
56.860378;60.549004;Экспресс шаурма №1;кафе быстрого питания;Техническая, 10/5а
56.807347;60.599061;По-Царски;магазин фастфудной продукции;Щорса, 107а/1 киоск
56.863643;60.601604;Золотой тандыр;бистро;Завокзальная, 5/19
56.798007;60.617282;CoffeVar;кофейня;Юлиуса Фучика, 3, 1 этаж, торговая сеть Монетка
56.854197;60.560807;Fast Kebab;бистро;Опалихинская, 27в
56.822292;60.570447;Royal Kabob;закусочная;Посадская, 24/1 киоск
56.780937;60.597038;Киоск по продаже фастфуда;;Военная, 21/1
56.814346;60.638956;Subway;ресторан быстрого питания;Мичурина, 230 к10 киоск
56.799332;60.629599;СoffeeIn;кофейня;Белинского, 222, 1 этаж, 2 подъезд
56.856399;60.640385;Магазин по продаже фастфудной продукции;ИП Чолахян В.Н.;Советская, 41/1
56.991417;60.478299;Шашлычок на углях;;Строителей, 8а/1 киоск
56.851781;60.65542;Lazzat factory;сеть киосков и магазинов фастфудной продукции;Академическая, 27/1
56.843369;60.696731;ТочноСочно;закусочная;Владимира Высоцкого, 50 киоск
56.789916;60.479148;Киоск по продаже фастфудной продукции;;Ручейная, 36/1 киоск
56.695971;60.537108;Шаурма Халяль;сеть киосков по продаже шаурмы;Горнощитская, 29/1
56.841771;60.645628;Киоск по продаже фастфудной продукции;г. Екатеринбург;Гагарина, 20 киоск
56.829876;60.562713;Сеть киосков по продаже фастфудной продукции;ИП Саакян А.А.;Токарей, 33/2 киоск
56.837604;60.631647;Doner King;кафе быстрого питания;Малышева, 93а
56.796876;60.628564;Жарим мясо на углях;киоск по продаже фастфудной продукции;Академика Шварца, 17 киоск
56.841279;60.659068;АйлавШавермаЕкб;киоск по продаже фастфудной продукции;Малышева, 127а/1 киоск
56.812021;60.559032;Шаурмастер;сеть кафе быстрого питания;Волгоградская, 192/3 киоск
56.814426;60.582253;Киоск по продаже фастфудной продукции;;Чкалова, 1 киоск
56.829738;60.58508;Best шаурма;киоск по продаже фастфудной продукции;Радищева, 28/2 киоск
56.76244;60.748672;Town`s grill;;Черняховского, 86/13 киоск
56.81149;60.559718;Crazy Giros;киоск по продаже фастфудной продукции;Волгоградская, 187а киоск
56.756763;60.752732;Магазин по продаже фастфудной продукции;ИП Тер-Карапетян К.С.;Черняховского, 86/6а
56.984856;60.565031;Time Out;кафе быстрого питания;Юбилейная, 1
56.794352;60.634319;Шашлычная;;Крестинского, 59/5
56.796737;60.629124;Карс;киоск по продаже фастфудной продукции;Академика Шварца, 17/8 киоск
56.856238;60.651968;Еш-ка;закусочная;Блюхера, 30/1
56.853316;60.551948;Киоск по продаже фастфудной продукции;;Халтурина, 55а/1
56.811523;60.559657;Киоск по продаже фастфудной продукции;;Волгоградская, 187 киоск
56.746131;60.606478;Бистро;ИП Манукян А.М.;Селькоровская, 109
56.904857;59.953112;Евразия;сеть кафе быстрого питания;Ильича проспект, 31/4
56.793056;59.903979;Miami;киоск по продаже фастфудной продукции;Максима Горького, 48 киоск
56.802834;60.647669;4.7 кебаб;магазин фастфудной продукции;Базовый переулок, 47/1
56.865956;60.532061;Bonus Kebab;;Техническая, 37/4
56.864619;60.536933;Ош;бистро;Техническая, 26/2
56.825825;60.668247;Шаверма;магазин фастфудной продукции;Хрустальная, 40/1
56.814769;60.582653;Русские блины;киоск по продаже фастфудной продукции;Чкалова, 1/1 киоск
56.849912;60.572067;Обжорка;киоск по продаже фастфудной продукции;Колмогорова, 56/1 киоск
56.792453;60.502579;Киоск по продаже фастфудной продукции;;Академика Сахарова проспект, 107/1 киоск
56.869475;60.522926;Kebab KING;;Техническая, 63/1
56.807148;60.611275;Шаурма Клаб;кафе;8 Марта, 149/3
56.841612;60.630164;GRILL MEAT;кафе быстрого питания;Ленина проспект, 81/1
56.836625;60.596908;Магазин-кулинария;;Банковский переулок, 1, 1 этаж
56.857941;60.599107;Сеть киосков и магазинов по продаже фастфудной продукции;;Вокзальная, 15/4 киоск
56.781467;60.631609;Магазин фастфудной продукции;;Самолётная, 45а
56.856778;60.653582;Doner Kebab;сеть кафе-киосков;Блюхера, 32/4 киоск
56.84242;60.637822;Шаурма плюс;;Ленина проспект, 93а
56.840492;60.652132;Kebab Time;киоск по продаже фастфудной продукции;Малышева, 123/1
56.963346;60.607911;Магазин по продаже фастфудной продукции;;Петрова, 36а
56.829883;60.562619;Магазин по продаже фастфудной продукции;;Токарей, 33/3
56.85347;60.645957;Doner Kebab;закусочная;Мира, 1/2
56.71405;60.792912;Дон Кебаб;;Декабристов, 1/3, 1 этаж
56.836795;60.600057;ЕДА-МАСТЕР;;8 Марта, 13, 1 этаж
56.842423;60.637801;КалашБургер;;Ленина проспект, 93а
56.907783;60.8112;Kebab House;киоск фастфудной продукции;Театральная, 6/2
56.856289;60.598804;Брусника маркет;мини-маркет;ТЦ Свердловск, Героев России, 2, 23 офис, 3 этаж
56.805675;60.722482;Wаверма;магазин фастфудной продукции;Уфимская, 1в
56.980348;60.551322;Шашлычный двор;киоск быстрого питания;Успенский проспект, 56/3 киоск
56.830801;60.545172;Шаурма & Гриль;;Викулова, 39/3
56.773785;60.816567;Шашлычная №1;магазин по продаже фастфудной продукции;Реактивная, 60в
56.695535;60.835365;Пища богов;киоск фастфудной продукции;1 Мая, 27/1 киоск
56.908345;59.944711;Firdaus King;киоск по продаже фастфудной продукции;Ватутина, 50
56.866819;60.582788;Магазин по продаже фастфудной продукции;;Артинская, 34/1
56.857186;60.597279;Doner Burger;кафе быстрого питания;Стрелочников, 41 киоск
56.9944;60.465956;Жар-Ко;шашлычная;Советская, 2г
56.768329;60.606792;Киоск по продаже фастфудной продукции;;Санаторная, 15 киоск
56.92229;60.765253;#ВкусноТУТ;;Режевской тракт 15 км, 1/1
56.717239;60.831075;Магазин корейских салатов;ИП Хван Н.Ю.;ТК Славянка, Пролетарская, 82/6, 1 этаж
56.829856;60.563078;Киоск по продаже фастфудной продукции;;Токарей, 33 киоск
56.784588;60.608048;Топаз;буфет;Титова, 1, 1 этаж
56.772025;60.585999;Киоск по продаже фастфудной продукции;ИП Ревякин А.В.;Симферопольская, 26а, 1 этаж
56.902244;60.589927;Киоск по продаже фастфудной продукции;;Победы, 65а/2 киоск
56.764602;60.743679;ЖарКо;киоск быстрого питания;Альпинистов, 85а киоск
56.817308;60.603768;BOX FRITES;стритфуд-кафе;Большакова, 82Б
56.782244;60.608413;Гриль & Шаурма;киоск по продаже фастфудной продукции;Титова, 12 киоск
56.812565;60.557771;Киоск по продаже фастфудной продукции;;Белореченская, 36/8 киоск
56.98014;60.566117;Вкусноешка;магазин по продаже фастфудной продукции;Кривоусова, 34а/1
56.883871;60.010245;Магазин фастфудной продукции;;Талица, 5/1
56.682906;60.839619;Пита Хаус;кафе быстрого питания;Новая, 2а/3 киоск
56.893528;59.932798;Сударушка;сеть кафетериев;Гагарина, 73/2
56.905784;60.613958;Шаверма №1;г. Екатеринбург;Космонавтов проспект, 80в киоск
56.758799;60.587763;Навруз;бистро;Новосибирская 2-я, 10/1
56.830254;60.637567;Чебуречная;;Шарташский рынок, Восточная, 15а, 15 павильон
56.863028;60.632966;Киоск по продаже фастфудной продукции;;Учителей, 8 киоск
56.797122;60.628396;Азия-шаурма;киоск по продаже фастфудной продукции;Академика Шварца, 17 киоск
56.681587;60.582315;Магазин фастфудной продукции;;Кузнецова, 2ж
56.814011;60.639746;Киоск по продаже фастфудной продукции;;Мичурина, 230/18 киоск
56.904767;60.599813;Ем и ем;киоск по продаже фастфудной продукции;Восстания, 50/2
56.8214;60.619909;Киоск по продаже фастфудной продукции;;Тверитина, 53а киоск
56.826665;60.668917;Киоск по продаже фастфудной продукции;ИП Харатян А.С.;Байкальская, 35а киоск
56.901955;60.588836;Мега Блин;кафе быстрого питания;Победы, 65/9 киоск
56.89469;60.580141;Буфет;;Фестивальная, 8Б, 1 этаж
56.899821;60.613812;Тандырная шаурмания;;Космонавтов проспект, 41/2
56.824131;60.700213;Мир корейских салатов;магазин;40-летия Комсомола, 38а, 1 этаж
56.695582;60.835332;Киоск фастфудной продукции;;1 Мая, 27 киоск
56.797529;60.580603;Киоск по продаже фастфудной продукции;;Амундсена, 61 киоск
56.797209;60.581184;Киоск по продаже горячей кукурузы;;Экомолл Гранат, Амундсена, 63, 1 этаж
56.81112;60.5374;Шашлык & Шаурма;;Зоологическая, 5а киоск
56.858159;60.606976;Буфет;;Вокзальная, 23а
56.814149;60.639253;Киоск по продаже блинов;;Мичурина, 230/15 киоск
56.892779;60.570811;Магазин по продаже фастфудной продукции;;Автомолл Белая Башня, Донбасская, 1, 1 этаж
56.824339;60.699088;Киоск по продаже фастфудной продукции;;40-летия Комсомола, 38/3 киоск
56.768979;60.611535;Киоск по продаже фастфудной продукции;;Санаторная, 10/1 киоск
56.843292;60.696323;Grill Kebab;закусочная;Владимира Высоцкого, 50а/2
56.78778;60.511049;Киоск по продаже фастфудной продукции;;Академика Сахарова проспект, 57 киоск
56.881675;60.517701;Магазин фастфудной продукции;;Билимбаевская, 16а
56.762689;60.807513;Делаю;киоск по продаже фастфудной продукции;Бахчиванджи, 2д/8 киоск
56.806837;60.611676;Шаурма в лаваше;киоск по продаже фастфудной продукции;8 Марта, 149/4
56.829767;60.672932;Киоск по продаже фастфудной продукции;;Сибирский тракт дублёр, 2 киоск
56.761817;60.805885;БлинКо;закусочная;Бахчиванджи, 2а/11 киоск
56.904064;60.59925;Горячая выпечка из тандыра;закусочная;Восстания, 88
56.814578;60.6388;Чебурекин;магазин по продаже фастфудной продукции;Мичурина, 230/1 киоск
56.843578;60.692507;Шаурма-офис;магазин по продаже фастфудной продукции;Владимира Высоцкого, 45г/13
56.635985;60.82105;Чайная;;Маяковского, 3/1
56.858396;60.604045;А ням-ням?;буфет;Екатеринбург-Пассажирский, Вокзальная, 22, 3 этаж
56.830254;60.637567;Закусочная;;Шарташский рынок, Восточная, 15а, 4 павильон
56.814599;60.636329;Киоск по продаже фастфудной продукции;;Мичурина, 230/7 киоск
56.797079;60.628425;Киоск по продаже фастфудной продукции;;Академика Шварца, 17 киоск
56.906043;60.61393;Киоск по продаже фастфудной продукции;;Космонавтов проспект, 80Б киоск
56.782953;60.653152;Doner Kebab;киоск по продаже фастфудной продукции;Щербакова, 45
56.809552;60.563794;Киоск по продаже фастфудной продукции;;Волгоградская, 185 киоск
56.86612;60.531112;Киоск по продаже фастфудной продукции;;Надеждинская, 3 киоск
56.68522;60.840205;Магазин фастфудной продукции;;Ленина, 1в/1
56.797139;60.628614;Сахара;киоск по продаже фастфудной продукции;Академика Шварца, 17/3 киоск
56.769163;60.613414;Kebab Hause;киоск по продаже фастфудной продукции;Санаторная, 6/1 киоск
56.793388;60.519979;Кореяна;киоск по продаже готовых салатов;ТРЦ Академический, Краснолесья, 133, 1 этаж
56.791704;60.462865;Магазин продуктов;;Осоковая, 1
56.972308;60.598055;Киоск по продаже фастфудной продукции;;Петрова, 21 киоск
56.739893;60.607015;Магазин по продаже фастфудной продукции;;Бисертская, 2в
56.890269;60.631899;Киоск по продаже кондитерских изделий;ИП Ушаков В.В.;Старых Большевиков, 14/2 киоск
56.901855;59.941976;Закусочная;;Ватутина, 33/1, 1 этаж
56.695981;60.833165;Закусочная;;1 Мая, 16а
56.814876;60.63954;Чебурекоff;киоск по продаже фастфудной продукции;Мичурина, 230/58 киоск
56.829311;60.644842;Food City;киоск по продаже фастфудной продукции;Куйбышева, 90/2 киоск
56.844476;60.616656;Буфет;;БЦ Манхэттен, Мамина-Сибиряка, 101, 2.14 офис, 2 этаж
56.842997;60.616332;Электрон;магазин фастфудной продукции;Мамина-Сибиряка, 58, 1 этаж
56.814517;60.640702;Goog food;киоск по продаже фастфудной продукции;Мичурина, 230/10 киоск
56.691299;60.877991;Шашлычная;;Речной переулок, 15а/1
56.898671;60.736412;Вкус дома;;Чапаева, 39 киоск
56.793583;60.520272;Киоск по продаже горячей кукурузы;;ТРЦ Академический, Краснолесья, 133, 1 этаж
56.824163;60.5989;Киоск по продаже фастфудной продукции;;Народной Воли, 24 киоск
56.781159;60.681633;Киоск по продаже фастфудной продукции;;Алтайская, 70/1а киоск
56.861602;60.551489;Пив & Ко;магазин фастфудной продукции;Бебеля, 138, 1 этаж
56.770597;60.543134;Киоск по продаже шаурмы;ИП Ураимов М.А.;Амундсена, 125/2
56.989947;60.491662;Тагильская кружка;закусочная;Советская, 77а
56.811837;60.559579;У Аро;киоск по продаже фастфудной продукции;Волгоградская, 190/2 киоск
56.822886;60.503108;IKEA Екатеринбург;бистро;МеГа, Металлургов, 87, 1 этаж
56.841309;60.656264;Хачапурная №1;;Софьи Ковалевской, 3/1
56.79688;60.629071;Eat And Go;киоск по продаже фастфудной продукции;Академика Шварца, 17/6 киоск
56.793078;60.522104;Kebab KING;сеть кафе и киосков;Вильгельма де Геннина, 29/3
56.829801;60.568254;Марокканская шаверма;сеть магазинов и киосков по продаже фастфудной продукции;Крауля, 4/1
56.982931;60.563251;Шашлык off;киоск по продаже фастфудной продукции;Юбилейная, 3Б/1 киоск
56.796428;60.624614;БигБург;сеть магазинов фастфудной продукции;Академика Шварца, 15/1
56.886516;60.613446;Магазин по продаже фастфудной продукции;;Космонавтов проспект, 21Б
56.796718;60.629196;ПРОСТО/PRO БУРГЕРНАЯ;;Академика Шварца, 17/1 киоск
56.83305;60.582196;White Star;кафе-пекарня;ТРЦ Алатырь, Малышева, 5, 4 этаж
56.792621;60.621397;I love kebab;;Родонитовая, 9/3
56.8233;60.50592;#Лаваш;магазин фастфудной продукции;МеГа, Металлургов, 87, 1 этаж
56.83606;60.600061;Веселый ХотДог;сеть предприятий быстрого питания;8 Марта, 15/1 киоск
56.881367;60.51738;HOT BULL DOG;киоск по продаже фастфудной продукции;Билимбаевская, 15/3
56.845192;60.618633;Киоск по продаже фастфудной продукции;;Шарташская, 8 киоск
56.79226;60.621632;СoffeeIn;кофейня;Родонитовая, 12, 1 этаж
56.843313;60.650964;Kebab KING;сеть кафе и киосков;Мира, 19Б
56.841479;60.611009;Марокканская шаверма;сеть магазинов и киосков по продаже фастфудной продукции;Карла Либкнехта, 32а
56.838374;60.652735;Lazzat factory;сеть киосков и магазинов фастфудной продукции;Мира, 29/1
56.973669;60.576999;Шашлык off;киоск по продаже фастфудной продукции;Орджоникидзе, 18/1 киоск
56.784366;60.63464;Шаурма Халяль;сеть киосков по продаже шаурмы;Самолётная, 31Б
56.87012;60.551723;БигБург;сеть магазинов фастфудной продукции;Пехотинцев, 5/10
56.844064;60.64997;Магазин по продаже фастфудной продукции;;Мира, 26а
56.831398;60.545259;Сеть киосков по продаже фастфудной продукции;ИП Саакян А.А.;Викулова, 37/1 киоск
56.841871;60.632406;АйлавШавермаЕкб;киоск по продаже фастфудной продукции;Восточная, 7д киоск
56.823548;60.505091;White Star;кафе-пекарня;МеГа, Металлургов, 87, 1 этаж
56.800585;60.62986;I love kebab;;Белинского, 218/4
56.797103;59.916032;Miami;киоск по продаже фастфудной продукции;Цветников, 39а/1 киоск
56.837308;60.59762;Магазин-кулинария;;Администрация г. Екатеринбург, Ленина проспект, 24а, 1 этаж
56.818492;60.668291;Веселый ХотДог;сеть предприятий быстрого питания;Сибирский тракт, 57 киоск
56.857546;60.599007;Сеть киосков и магазинов по продаже фастфудной продукции;;Вокзальная, 15/1 киоск
56.796929;60.628528;Doner Kebab;сеть кафе-киосков;Академика Шварца, 17 киоск
56.815391;60.584607;HOT BULL DOG;киоск по продаже фастфудной продукции;Ясная, 1/7а киоск
56.796981;60.628493;Kebab House;киоск фастфудной продукции;Академика Шварца, 17 киоск
56.840264;60.653206;Киоск по продаже фастфудной продукции;;Малышева, 134а киоск
56.841988;60.632347;Сеть киосков по продаже фастфудной продукции;ИП Саакян А.А.;Ленина проспект, 83а киоск
56.811466;60.559782;Киоск по продаже фастфудной продукции;;Волгоградская, 187Б киоск
56.821566;60.66046;АйлавШавермаЕкб;киоск по продаже фастфудной продукции;Сибирский тракт, 33/1 киоск
56.894671;59.974025;Сударушка;сеть кафетериев;Московское шоссе 3 км, 1а киоск
56.853215;60.646734;Шаверма №1;г. Екатеринбург;Мира, 1
56.814337;60.640274;Киоск по продаже фастфудной продукции;;Мичурина, 230 к38 киоск
56.693238;60.091252;Miami;киоск по продаже фастфудной продукции;Калинина, 31у/1 киоск
56.835703;60.553273;Киоск по продаже фастфудной продукции;;Татищева, 69/6 киоск
56.815774;60.641708;Киоск по продаже горячей кукурузы;;Мичурина, 230/11 киоск
56.892419;60.613677;Doner Kebab;сеть кафе-киосков;Космонавтов проспект, 23/1
56.797845;60.579521;Kebab KING;сеть кафе и киосков;Академика Бардина, 50/2
56.836056;60.618509;Марокканская шаверма;сеть магазинов и киосков по продаже фастфудной продукции;Малышева, 59
56.881003;60.517562;Шашлык off;киоск по продаже фастфудной продукции;Билимбаевская, 15/2 киоск
56.894572;60.618927;БигБург;сеть магазинов фастфудной продукции;Красных Командиров, 3/2
56.91178;60.797893;Магазин по продаже фастфудной продукции;;Ленина, 63Б
56.796714;60.6292;Kebab House;киоск фастфудной продукции;Академика Шварца, 17/1 киоск, 1 этаж
56.896285;60.60579;I love kebab;;Ильича, 47/1
56.893663;59.961696;Сударушка;сеть кафетериев;Комсомольская, 9/1
56.796784;60.628627;Веселый ХотДог;сеть предприятий быстрого питания;Академика Шварца, 17 киоск
56.841148;60.630386;HOT BULL DOG;киоск по продаже фастфудной продукции;Ленина проспект, 58/1
56.768928;60.613408;Киоск по продаже фастфудной продукции;;Санаторная, 3 киоск
56.829105;60.646751;Киоск по продаже фастфудной продукции;;Куйбышева, 151а
56.761701;60.806034;Doner Kebab;сеть кафе-киосков;Бахчиванджи, 2а/9 киоск
56.809738;60.622597;Kebab KING;сеть кафе и киосков;Щорса, 29/1
56.839485;60.618194;Марокканская шаверма;сеть магазинов и киосков по продаже фастфудной продукции;Ленина проспект, 48, 1 этаж
56.819;60.537051;Магазин по продаже фастфудной продукции;;Репина, 109/2
56.861582;60.643847;I love kebab;;Сулимова, 26/1
56.798049;60.633653;Киоск по продаже фастфудной продукции;;Белинского, 173/1 киоск
56.854221;60.636764;Kebab KING;сеть кафе и киосков;Уральская, 89а
56.79703;60.628459;Марокканская шаверма;сеть магазинов и киосков по продаже фастфудной продукции;Академика Шварца, 17 киоск
56.787428;60.783036;Магазин по продаже фастфудной продукции;;Латвийская, 2в
56.796752;60.629367;Киоск по продаже фастфудной продукции;;Академика Шварца, 17/7 киоск
56.858137;60.601249;Kebab KING;сеть кафе и киосков;Невьянский переулок, 1/1
56.837712;60.611632;Марокканская шаверма;сеть магазинов и киосков по продаже фастфудной продукции;Карла Либкнехта, 9/1
56.851364;60.655527;Магазин по продаже фастфудной продукции;;Комсомольская, 16а/1
56.807554;60.542603;Киоск по продаже фастфудной продукции;;Серафимы Дерябиной, 34в киоск
56.835121;60.608098;Kebab KING;сеть кафе и киосков;Малышева, 33/1
56.848615;60.566534;Марокканская шаверма;сеть магазинов и киосков по продаже фастфудной продукции;Готвальда, 9/2
56.841122;60.656926;Магазин по продаже фастфудной продукции;;Малышева, 127/1
56.885425;60.510463;Киоск по продаже фастфудной продукции;;Билимбаевская, 28/2 киоск
56.862397;60.633239;Kebab KING;сеть кафе и киосков;Учителей, 6 киоск
56.810258;60.623069;Марокканская шаверма;сеть магазинов и киосков по продаже фастфудной продукции;Белинского, 139/1
56.904641;59.953067;Магазин по продаже фастфудной продукции;;Ильича проспект, 31/6
56.90678;60.613977;Киоск по продаже фастфудной продукции;;Космонавтов проспект, 86Б киоск
56.840879;60.659367;Kebab KING;сеть кафе и киосков;Малышева, 144/1 киоск
56.866178;60.531751;Марокканская шаверма;сеть магазинов и киосков по продаже фастфудной продукции;Техническая, 37/3
56.821526;60.56957;Магазин по продаже фастфудной продукции;;Белореченская, 7/2
56.850722;60.629627;Киоск по продаже фастфудной продукции;;Советская, 10 киоск
56.869783;60.553069;Kebab KING;сеть кафе и киосков;Пехотинцев, 5а
56.831187;60.596415;Марокканская шаверма;сеть магазинов и киосков по продаже фастфудной продукции;Вайнера, 38/2
56.860721;60.550552;Магазин по продаже фастфудной продукции;;Бебеля, 136/1
56.856376;60.651211;Киоск по продаже фастфудной продукции;;Блюхера, 63г/1 киоск
56.819269;60.539161;Kebab KING;сеть кафе и киосков;Репина, 88/1
56.902269;60.589861;Киоск по продаже фастфудной продукции;;Победы, 65а/1 киоск
56.836796;60.62744;Kebab KING;сеть кафе и киосков;Бажова, 130в
56.838969;60.553501;Киоск по продаже фастфудной продукции;;Заводская, 12/1 киоск
56.841141;60.630406;Kebab KING;сеть кафе и киосков;Ленина проспект, 58/1
56.909991;59.931836;Киоск по продаже фастфудной продукции;;Космонавтов проспект, 13 киоск
56.905784;60.613958;Kebab KING;сеть кафе и киосков;Космонавтов проспект, 80в киоск
56.834658;60.6889;Киоск по продаже фастфудной продукции;;Сыромолотова, 28а/5 киоск
56.840494;60.611245;Kebab KING;сеть кафе и киосков;Карла Либкнехта, 26а
56.773995;60.818481;Киоск по продаже фастфудной продукции;;Реактивная, 66 киоск
56.754555;60.703751;Kebab KING;сеть кафе и киосков;Грибоедова, 22 киоск
56.700137;60.828415;Киоск по продаже фастфудной продукции;;Карла Маркса, 16 киоск
56.787041;60.647652;Kebab KING;сеть кафе и киосков;Щербакова, 7 киоск
56.866147;60.53159;Киоск по продаже фастфудной продукции;;Техническая, 37/2 киоск
56.834841;60.680454;Kebab KING;сеть кафе и киосков;Сыромолотова, 18 киоск
56.901456;60.588197;Киоск по продаже фастфудной продукции;;Победы, 63а киоск
56.869605;60.552314;Киоск по продаже фастфудной продукции;;Бебеля, 160/1 киоск
56.805189;60.558967;Киоск по продаже фастфудной продукции;;Академика Бардина, 19а
56.866908;60.642766;Киоск по продаже фастфудной продукции;;Вилонова, 33 киоск
56.857018;60.664424;Киоск по продаже фастфудной продукции;;Студенческая, 1 лит14 киоск
56.78692;60.647327;Киоск по продаже фастфудной продукции;;Павлодарская, 13 киоск
56.9664;60.604242;Киоск по продаже фастфудной продукции;;Петрова, 34г киоск
56.881222;60.51654;Киоск по продаже фастфудной продукции;;Билимбаевская, 17/5 киоск
56.830793;60.545115;Киоск по продаже фастфудной продукции;;Викулова, 39/3 киоск
56.813916;60.584955;Киоск по продаже фастфудной продукции;;Фурманова, 134 киоск
56.838322;60.620756;Киоск по продаже фастфудной продукции;;Луначарского, 136/2 киоск
56.899407;60.598819;Киоск по продаже фастфудной продукции;;Победы, 36/2 киоск
56.796021;60.60993;Киоск по продаже фастфудной продукции;;8 Марта, 204 киоск
56.773681;60.599963;Киоск по продаже фастфудной продукции;;Патриса Лумумбы, 4 киоск
56.693376;60.51873;Киоск по продаже фастфудной продукции;;Будённого, 25 киоск
56.830963;60.552087;Киоск по продаже фастфудной продукции;;Крауля, 56 киоск
56.809993;60.622318;Киоск по продаже фастфудной продукции;;Щорса, 52Б
56.816956;60.640389;Киоск по продаже фастфудной продукции;;Мичурина, 230 к7 киоск
56.823918;60.694976;Киоск по продаже фастфудной продукции;;Сибирский тракт дублёр, 10/1 киоск
56.823841;60.695466;Киоск по продаже фастфудной продукции;;Сибирский тракт дублёр, 10/2 киоск
56.82407;60.69419;Киоск по продаже фастфудной продукции;;Сибирский тракт дублёр, 10а киоск
56.823858;60.695267;Киоск по продаже фастфудной продукции;;Сибирский тракт дублёр, 10Б киоск
56.762654;60.807603;Киоск по продаже фастфудной продукции;;Бахчиванджи, 2 лит Е8 киоск
56.903128;60.814805;Киоск по продаже фастфудной продукции;;Строителей, 9а киоск
56.7598;60.819761;Киоск по продаже фастфудной продукции;;Бахчиванджи, 12 киоск
56.759342;60.81946;Киоск по продаже фастфудной продукции;;Бахчиванджи, 14а киоск
56.807762;60.610776;Киоск по продаже фастфудной продукции;;8 Марта, 145 киоск
56.98833;60.463424;Киоск по продаже фастфудной продукции;;Ленина, 6г киоск
56.761145;60.80452;Киоск по продаже фастфудной продукции;;Бахчиванджи, 2а/6 киоск
56.76178;60.805932;Киоск по продаже фастфудной продукции;;Бахчиванджи, 2а/10 киоск
56.761343;60.806139;Киоск по продаже фастфудной продукции;;Бахчиванджи, 2в/8 киоск
56.880908;60.517211;Киоск по продаже фастфудной продукции;;Билимбаевская, 17 киоск
56.892746;59.954351;Киоск по продаже фастфудной продукции;;Гагарина, 1/1 киоск
56.940735;60.671799;Киоск по продаже фастфудной продукции;;Фруктовая, 5 киоск
56.821335;60.498174;Киоск по продаже фастфудной продукции;;Московский тракт 9 км, 14а киоск
56.824059;60.693532;Киоск по продаже фастфудной продукции;;Сибирский тракт дублёр, 10 киоск
56.775629;60.607434;Киоск по продаже фастфудной продукции;;Сухоложская, 12 киоск
56.861083;60.538437;Киоск по продаже фастфудной продукции;;Миномётчиков, 3/2 киоск
56.823036;59.932019;Киоск по продаже фастфудной продукции;;Нахимова, 1/16 киоск
56.784515;60.736885;Киоск по продаже фастфудной продукции;;Варшавская, 26е киоск
56.895177;59.973093;Киоск по продаже фастфудной продукции;;Московское шоссе, 1/1 киоск
56.904488;59.960565;Киоск по продаже фастфудной продукции;;Ильича проспект, 39 киоск
56.903542;59.959745;Киоск по продаже фастфудной продукции;;Ильича проспект, 28в киоск
56.900282;60.76846;Киоск по продаже фастфудной продукции;;Берёзовский тракт, 9 киоск
56.807735;60.610785;Киоск по продаже фастфудной продукции;;8 Марта, 145 киоск
56.868456;60.594734;Киоск по продаже фастфудной продукции;;Артинская, 23д/2
56.89786;59.953342;Киоск по продаже фастфудной продукции;;Трубников, 52 киоск
56.960498;59.81038;Киоск по продаже фастфудной продукции;;Ленина, 161 киоск
56.815476;60.63782;Киоск по продаже фастфудной продукции;;Мичурина, 230/55 киоск
56.828096;60.517879;Киоск по продаже фастфудной продукции;;Металлургов, 70 лит Ю1 киоск
56.815366;60.637892;Киоск по продаже фастфудной продукции;;Мичурина, 230/56 киоск
56.814221;60.638688;Киоск по продаже фастфудной продукции;;Мичурина, 230 к11 киоск
56.898313;59.953245;Киоск по продаже фастфудной продукции;;Трубников, 52/4
56.844003;60.701614;Киоск по продаже фастфудной продукции;;Владимира Высоцкого, 54д киоск
56.761838;60.805241;Киоск по продаже фастфудной продукции;;Бахчиванджи, 2а/12 киоск
56.807288;60.544063;Киоск по продаже фастфудной продукции;;Серафимы Дерябиной, 51а киоск
56.845859;60.603305;Космос;сеть кулинарий;Кинотеатр Космос, Дзержинского, 2, 1 этаж
56.831373;60.588671;Люкс;кулинария;Центральный рынок переулок, 6, 1 этаж
56.826594;60.589013;Знакомая кухня;кулинария;Куйбышева, 21, 1 этаж
56.798098;60.622548;ClearBarn;кафе здорового питания;Юлиуса Фучика, 9, 1 этаж
56.908487;59.954043;Стар;кулинария;Данилова, 2а, 1 этаж
56.820759;60.631198;Кухня у Истоминых;;Большакова, 20
56.845229;60.61793;ЗАПРАВКА;кафе-лапшичная;Луначарского, 80, 1 этаж
56.83318;60.567913;Татищев;кулинария;Мельникова, 27
56.892048;60.594588;Мозаика;кулинария;Кировградская, 36
56.795191;60.49392;СЫТОешка;;Евгения Савкова, 5, 1 этаж
56.825923;60.637251;Пышка;кулинария;Декабристов, 1, 1 этаж
56.829704;60.58528;Кардиган;ресторан быстрого питания;БЦ Парус, Радищева, 28, 2 этаж
56.904648;60.585051;Вкусняшки у Сашки;кондитерская-пекарня;Бакинских Комиссаров, 101
56.784801;60.515812;Антоновка;кулинария;Академика Сахарова проспект, 51, 1 этаж
56.849613;60.596361;Печчини;кофейня-пекарня;Красный переулок, 4, 1 этаж
56.869484;60.553643;Пышка-Екатеринбург;кулинария;Пехотинцев, 5
56.835885;60.582472;Настоящая пекарня;;Ленина проспект, 2
56.834568;60.66121;Магазин-кулинария;;Комсомольская, 76, 1 этаж
56.972637;60.569723;КулинарЪ;сеть магазинов;Успенский проспект, 95, 1 этаж
56.75891;60.81907;Хлебница;пекарня;Бахчиванджи, 14
56.909139;60.592018;Бублик;кулинария;Бакинских Комиссаров, 127, 1 этаж
56.686949;60.51796;Селянка;кулинария;Ленина, 10г
56.833583;60.596483;I Coffee;кофейня;ДЦ Малышева 36, Малышева, 36, 703 офис, 7 этаж
56.810896;60.566597;Мама Грузия;пекарня;Ясная, 31а, 1 этаж
56.876247;60.654944;Мелин;пекарня;Шефская, 3г лит Т
56.830337;60.548275;Уральский Сервис;кулинария;Крауля, 63, 1 этаж
56.779131;60.614725;Лакомов;служба доставки пирогов;Титова, 19 лит Д, 3 этаж
56.80438;60.575158;Золушка;кулинария;Волгоградская, 47, 1 этаж
56.912065;60.597872;Домашняя Трапеза;кулинария;Бакинских Комиссаров, 112
56.897577;60.602368;Фамильная пекарня;;Стахановская, 34
56.734563;60.982784;Корица;кулинария-пекарня;Ленина, 1в
56.995672;60.463585;Ма Ли На;;Ленина, 4, 1 этаж
56.780697;60.533915;Добрый Хлеб;пекарня;Чкалова, 252, 1 этаж, правое крыло
56.906588;59.992609;Аполинария;кулинария;Кольцевая, 7/1
56.863621;60.576662;Пышка;кулинария;Армавирская, 12
56.78617;60.525158;Кулинария;ИП Федотова И.С.;Анатолия Мехренцева, 42, 1 этаж
56.862876;60.639244;Панбулка;кулинария-пекарня;Сулимова, 38, 1 этаж
56.784168;60.73717;Кулинария;ИП Неверовская С.М.;Варшавская, 26, 1 этаж
56.862196;60.605864;М5;кафе;Мельковский переулок, 5 лит К, 1 этаж
56.90919;60.600654;Русские традиции;магазин-кулинария;Новаторов, 8в
56.69515;60.79118;Сытный пончик;магазин-кулинария;Космонавтов, 7
56.868681;60.655452;Вкус Смак;кулинария;Александровская, 2а
56.77145;60.610925;Калинушка+;кулинария;Ремесленный переулок, 6, 1 этаж
56.813999;60.535539;Домашняя кухня;буфет;Зоологическая, 9, 2 этаж
56.877518;60.664406;Наш продукт;;Шефская, 2д/2
56.896973;59.952419;У КЛЕНА;кулинария;Трубников, 48
56.979559;60.482289;КулинарЪ;кулинария;Лесная, 1, 1 этаж
56.81699;60.663336;Тоффи;кондитерская;РЦ Луна, Сибирский тракт, 34Б, 1 этаж
56.683514;60.799864;Сварог;столовая;Пионерская, 41, 1 этаж
56.698;60.832758;Кулинария;;1 Мая, 7, 1 этаж
56.822802;60.611736;Буфет;;Чапаева, 1а
56.90434;59.943339;Уральская кухня;кулинария;Ватутина, 38, 1 этаж
56.840503;60.568827;Буфет;;ДК ВЕК, Долорес Ибаррури, 2е, 5 этаж
56.758829;60.810529;Кулинария;продуктовый магазин;Авиаторов, 14, 1 этаж
56.952902;60.600694;УралПирог;;Безымянный переулок, 1а лит Б, 1 этаж
56.828372;60.617651;Кулинария;УрФУ;УрФУ, Куйбышева, 48
56.890415;60.578565;Кореяна;производственная компания;Культуры, 23, 301 офис, 3 этаж
56.846482;60.557793;Продарсенал;;Колмогорова, 3, 1 этаж
56.758075;60.553578;Синергия;оптово-дистрибьюторская компания;Узорная, 48
56.900825;59.95291;Кулинария;ИП Чистов К.М.;Трубников, 58, 1 этаж
56.776459;60.565659;Буфет;ИП Вотев А.А.;Академика Вонсовского, 1а, 1 этаж
56.891822;60.626599;Домовёнок;кулинария;Баумана, 25, 1 этаж
56.885872;59.893078;Динур;кулинария;Ильича, 6а, 1 этаж
56.90765;59.930943;Провинция;магазин кулинарии;Космонавтов проспект, 7
56.883529;60.010023;Кулинария;;Талица, 5, 1 этаж
56.751109;60.812972;У Михалыча;столовая;Бахчиванджи, 41 лит Ж, 1 этаж
56.954101;59.803775;Кулинария;;Красноармейская, 58а
56.964766;59.819412;Кулинария;;Свободы площадь, 2а
56.84445;60.644396;Буфет;;Гагарина, 14, 1 этаж
56.796765;59.92327;Уралочка;кулинария;Мира, 41, 1 этаж
56.974042;60.580467;Факультет;кулинария;Орджоникидзе, 16а, 1 этаж
56.90588;59.946195;Кулинария;;1 Мая, 9а, 1 этаж
56.864758;60.593212;Вкусно по-домашнему;буфет;Завокзальная, 5а, 1 этаж
56.83737;60.696251;Закусочная;;40-летия Комсомола, 1а/1
56.885468;60.56223;Кулинария;ИП Косарева И.В.;Суворовский переулок, 25
56.755414;60.698853;Олес;кулинария;Бородина, 26
56.888759;60.621601;Бабушкины пироги;закусочная;Бабушкина, 23, 1 этаж
56.833344;60.591133;Космос;сеть кулинарий;Малышева, 21/2, 1 этаж
56.829513;60.611694;Люкс;кулинария;Гоголя, 57, 1 этаж
56.840645;60.610614;ClearBarn;кафе здорового питания;ТЦ Sila Voli, Карла Либкнехта, 23Б, 1 этаж
56.848305;60.615162;Пышка;кулинария;Шевченко, 6, 1 этаж
56.908808;60.819964;Магазин-кулинария;;Анучина, 6, 1 этаж
56.985024;60.555216;КулинарЪ;сеть магазинов;Уральских Рабочих, 44а, 1 этаж
56.782895;60.537793;Елисей;кулинар-кафе;Чкалова, 246, 2 этаж
56.88745;60.615437;Бублик;кулинария;Баумана, 2, 1 этаж
56.896301;60.6403;Русские традиции;магазин-кулинария;Баумана, 58, 1 этаж
56.841593;60.65972;Космос;сеть кулинарий;Комсомольская, 53
56.97541;60.564888;КулинарЪ;сеть магазинов;Успенский проспект, 101, 1 этаж
56.809481;60.616842;Космос;сеть кулинарий;Щорса, 62, 1 этаж
56.978266;60.549626;КулинарЪ;сеть магазинов;Сварщиков, 2а, 1 этаж
56.861692;60.63788;Космос;сеть кулинарий;Менделеева, 11, 1 этаж
56.855472;60.60454;Космос;сеть кулинарий;Свердлова, 66, 1 этаж
56.841786;60.609305;Космос;сеть кулинарий;Толмачёва, 28, 1 этаж
56.900624;60.615855;Космос;сеть кулинарий;Старых Большевиков, 91, 1 этаж
56.839339;60.618247;Космос;сеть кулинарий;Ленина проспект, 48
56.834962;60.595575;Космос;сеть кулинарий;Вайнера, 9а, 1 этаж
56.842852;60.646477;Космос;сеть кулинарий;Гагарина, 33, 1 этаж
56.897939;60.628831;Космос;сеть кулинарий;Красных Командиров, 29, 1 этаж
56.798144;60.633792;Космос;сеть кулинарий;Белинского, 173, 1 этаж
56.836119;60.616033;Космос;сеть кулинарий;ТРЦ Антей, Малышева, 53, 1 этаж
56.799353;60.575783;Космос;сеть кулинарий;Академика Бардина, 42, 1 этаж
56.841059;60.610472;Космос;сеть кулинарий;ТЦ Галерея, Карла Либкнехта, 27, 1 этаж
56.782473;60.608381;Космос;сеть кулинарий;Титова, 12, 1 этаж
56.833355;60.591635;Пан-Пицца;сеть пиццерий;Малышева, 21/1, 1 этаж
56.800712;60.593664;Pizza 911;;Московская, 198
56.833668;60.593954;Domino`s Pizza;пиццерия;Малышева, 27, вход с ул. Малышева
56.832498;60.589947;DUO Pizza and Wine;пиццерия;Сакко и Ванцетти, 61, 1 этаж
56.844542;60.591715;Pinzeria by Bontempi;ресторан;Президентский Центр, Бориса Ельцина, 3а, 2 этаж
56.836181;60.597854;Pizza Hut;пиццерия;ЦУМ, Банковский переулок, 3, 1 этаж
56.804989;60.614084;Папа Джонс;пиццерия;Степана Разина, 122, 1 этаж
56.784016;60.608976;Сытый Самурай;сеть ресторанов популярной кухни;Титова, 1, 1 этаж
56.775748;60.606479;Italianpizza24.ru;пиццерия;Агрономическая, 28, 1 этаж
56.838473;60.581602;IL Патио;сеть семейных итальянских ресторанов;Московская, 27, 1 этаж
56.852448;60.61626;Магик-пицца;пиццерия;Луначарского, 31, 1 этаж
56.79094;60.516458;WILLY;кафе-пиццерия;Вильгельма де Геннина, 40, 1 этаж
56.785653;60.514246;Точно! Пицца;пиццерия;Академика Сахарова проспект, 53, 1 этаж
56.853604;60.638175;КусОk;пиццерия;Уральская, 75
56.781406;60.669393;Число Пи;открытая кухня;Рощинская, 29, цокольный этаж
56.79578;60.58077;3 минуты & GO;пицца-маркет;ТЦ КИТ, Амундсена, 65, супермаркет Райт
56.895449;60.639586;Чудо-печка;кафе;Баумана, 56, 1 этаж
56.747105;60.564523;Ciao pizza & burgers;ресторан;Золотистый бульвар, 4, 2 офис, 1 этаж
56.790021;60.517942;СУШИ ТОЧКА;магазин;Вильгельма де Геннина, 37, 1 этаж
56.8311;60.550068;Smile Pizza;пиццерия;Крауля, 70, 1 этаж
56.753633;60.697325;Леос;пиццерия;Грибоедова, 15, 1 этаж
56.685729;60.855059;Нагано;служба доставки;Октябрьская, 153, 1 этаж
56.788661;60.649296;Pizza Market;;ТРК Глобус, Щербакова, 4, 1 этаж, напротив касс РАЙТ
56.82443;60.604794;Пан-Пицца;сеть пиццерий;8 Марта, 49, 1 этаж
56.842459;60.646017;Папа Джонс;пиццерия;Гагарина, 33, 1 этаж
56.861332;60.642666;Italianpizza24.ru;пиццерия;Сулимова, 31а, 1 этаж
56.889841;60.632596;Чудо-печка;кафе;Краснофлотцев, 24, 1 этаж
56.837049;60.629482;Пан-Пицца;сеть пиццерий;Малышева, 108, 1 этаж
56.8319;60.56724;Папа Джонс;пиццерия;Мельникова, 38, 1 этаж
56.861332;60.642666;Italianpizza24.ru;пиццерия;Сулимова, 31а, 1 этаж
56.829376;60.617066;Пан-Пицца;сеть пиццерий;Белинского, 71, 1 этаж
56.836585;60.59138;Папа Джонс;пиццерия;Хохрякова, 3а, 1 этаж
56.829476;60.635899;Пан-Пицца;сеть пиццерий;Восточная, 160, 2 этаж
56.8319;60.56724;Папа Джонс;пиццерия;Мельникова, 38, 1 этаж
56.897806;60.603251;Пан-Пицца;сеть пиццерий;Победы, 26, 1 этаж
56.8319;60.56724;Папа Джонс;пиццерия;Мельникова, 38, 1 этаж
56.853111;60.604404;Папа Джонс;пиццерия;Свердлова, 25, 1 этаж
56.844542;60.591715;БАРБОРИС;семейный ресторан;Президентский Центр, Бориса Ельцина, 3а, 1 этаж
56.836893;60.586525;Monk;ресторан;Ленина проспект, 9а, 1 этаж
56.835093;60.612835;Васаби;ресторан паназиатской кухни;Отель Центральный, Малышева, 74, 1 этаж
56.83503;60.612513;Дубровин;ресторан;Отель Центральный, Малышева, 74, 1 этаж
56.850113;60.569222;Золотая долина;ресторан;Готвальда, 6/2, 1 этаж
56.83649;60.618408;Park Inn by Radisson Ekaterinburg;ресторан;Гостиница Park Inn, Мамина-Сибиряка, 98, 1 этаж
56.840858;60.622272;Хмели Сунели;ресторан счастливой грузинской кухни;Ленина проспект, 69/10, 1, 2 этаж
56.827981;60.602376;Donna Olivia Macaroni Grill;ресторан;8 Марта, 41
56.904571;60.568261;AVS-Отель;гостинично-развлекательный комплекс;АВС-Отель, Республиканская, 1а
56.829053;60.601072;РЫБАLOVE;ресторан;ТРЦ Гринвич, 8 Марта, 46, 3 этаж
56.835125;60.613286;Центральный by USTA Hotels;отель;Отель Центральный, Малышева, 74
56.840513;60.608318;Паштет;ресторан;Толмачёва, 23, 1 этаж
56.839972;60.614753;Своя Компания;сеть мягких ресторанов;Ленина проспект, 49, 2 этаж
56.833037;60.611507;Novotel Екатеринбург Центр;гостиница;Гостиница Novotel Екатеринбург Центр, Энгельса, 7
56.833828;60.592395;ГАДЫ, Крабы и Вино;рыбный ресторан;Хохрякова, 23, 1 этаж
56.834885;60.605693;Бюро Находок;ресторан;Малышева, 31к
56.844917;60.615553;Белая лошадь;загородный клуб;Мамина-Сибиряка, 52
56.845929;60.705511;Пески;загородный клуб;Пески посёлок, 13
56.839019;60.61238;Maccheroni;ресторан;Ленина проспект, 40, 1 этаж
56.834541;60.601676;Sufra;ресторан азербайджанской кухни;ТЦ Limerance Fashion Center, Воеводина, 8, 9 этаж
56.835991;60.614245;Вертикаль;ресторан;БЦ Высоцкий, Малышева, 51, 51 этаж
56.81699;60.663336;Луна;развлекательный центр;РЦ Луна, Сибирский тракт, 34Б
56.839718;60.613037;PLOV project;;Ленина проспект, 49, 1 этаж
56.839228;60.597972;Сойка;ресторан;8 Марта, 6
56.839375;60.609849;Мамуля;семейный ресторан;Ленина проспект, 41, 1-2 этаж
56.830078;60.594771;Лариса Ивановна;ресторан грузинской кухни;Радищева, 23, 1 этаж
56.842695;60.618902;Eshak;ресторан восточной кухни;Луначарского, 128, 2 этаж
56.831505;60.589815;Grand Урюк;сеть ресторанов;Сакко и Ванцетти, 64, 1 этаж
56.833099;60.592771;Креветки и Бургеры;ресторан;Малышева, 24, 1 этаж
56.834281;60.597159;Мой друг Оливье;ресторан;Банковский переулок, 10, 1 этаж
56.83441;60.634242;Pan Smetan;мясной ресторан;Восточная, 82, 1 этаж
56.82294;60.587879;Московская горка by USTA Hotels;отель;Московская, 131
56.839069;60.612871;Гранд Авеню by USTA Hotels;отель;Ленина проспект, 40
56.887067;60.682937;Тепло;уют-клуб;Норильская, 80
56.792629;60.623409;КИНЗА-ЗА;ресторан нескучной восточной кухни;Родонитовая, 19, 2 этаж
56.828518;60.600945;Хочу Пури;ресторан;ТРЦ Гринвич, 8 Марта, 46, 3 этаж
56.843908;60.590281;КОРОВА;мясной ресторан;Бориса Ельцина, 6
56.841715;60.662123;Троекуров;ресторан;Малышева, 137
56.775968;60.68036;Glissando;клубный дом;Рощинская, 69Б
56.807425;60.611289;МясУгляс;кафе;8 Марта, 149/1
56.837715;60.547776;Визави;гостиничный комплекс;Гостиница Визави, Татищева, 86, въезд с ул. Каменщиков
56.835711;60.633749;ТеЛяЧьи НежНости;ресторан;Восточная, 76, 1 этаж
56.835991;60.614245;Panorama A.S.P.;ресторан;БЦ Высоцкий, Малышева, 51, 50 этаж
56.816912;60.632005;KITCHEN;ресторан;БЦ Clever Park, Ткачей, 23, мансардный этаж
56.827968;60.600097;Мистер Чанг;ресторан паназиатской кухни;ТРЦ Гринвич, 8 Марта, 46, 3 этаж, 4 уровень
56.840683;60.620798;Бельмесы;ресторан;Ленина проспект, 69/1, 2 этаж
56.834957;60.599415;T.G.I. Friday`s;ресторан;ТЦ Мытный Двор, 8 Марта, 8д, 1, 2 этаж
56.837178;60.633193;Бадриджани;ресторан;Восточная, 72, 1 этаж
56.838595;60.594781;Carbonara;домашний итальянский ресторан;Торговый деловой центр Европа, Ленина проспект, 25, 3 этаж
56.836578;60.595262;Le Bourg 1905;ресторан;Универмаг Пассаж, Вайнера, 9, 4 этаж
56.831796;60.617633;ДРУЖБА;китайский ресторан;Красноармейская, 66, 1 этаж
56.828437;60.591608;Шустов;ресторан русской кухни;Радищева, 31, 1 этаж
56.825614;60.565009;Гуливани;ресторан;Гурзуфская, 48, 1 этаж
56.824172;60.505848;Donna Olivia;ресторан;МеГа, Металлургов, 87, 2 этаж
56.839836;60.594028;Барашка на гранате;мясной грузинский ресторанчик;Антона Валека, 12
56.827993;60.599357;СЧАСТЬЕ;ресторан грузинской кухни;ТРЦ Гринвич, 8 Марта, 46, 3 этаж
56.830367;60.616669;Строганов-Гриль;ресторан;Белинского, 55, 1 этаж
56.840895;60.651988;Mama Asia;ресторан восточной кухни;Мира, 23, 1 этаж
56.837196;60.609101;Cibo/Kaori;ресторан;Пушкина, 12
56.830718;60.610732;Югославия Гриль;ресторан;БЦ Капитал, Гоголя, 36, 1 этаж
56.843915;60.197641;Европа-Азия;кемпинг;Московский тракт 27 км, 1
56.959187;60.764486;Остров сокровищ;база отдыха;Дальний Березит, 11, 20 км Режевского тракта
56.828999;60.6009;MIO;ресторан паназиатской кухни;ТРЦ Гринвич, 8 Марта, 46, 3 этаж, около эскалатора
56.836388;60.621072;Ганс;пивной ресторан;Малышева, 63, 1 этаж
56.762718;60.554565;Pashkin House;ресторан;Полевая, 9
56.851198;60.658847;Отель Тесса;;Академическая, 28а
56.784016;60.608976;Просторы;ресторанный комплекс;Титова, 1
56.833961;60.606294;Порт Стэнли;ресторан;Горького, 10а
56.835099;60.599367;Шикари;ресторан;ТЦ Мытный Двор, 8 Марта, 8д, 1, 2 этаж
56.842637;60.614889;Хуторок;ресторан украинской кухни;БЦ Вознесенский, Первомайская, 15, 1 этаж
56.840219;60.546663;ТЕПЛЫЕ КОТЫ;бар-ресторан;Кирова, 40а, 1 этаж
56.827972;60.600244;Кинг Конг Пицца;итальянский ресторан;ТРЦ Гринвич, 8 Марта, 46, 3 этаж, 4 уровень
56.834134;60.591743;P.L.Bar;ресторан;Хохрякова, 24, 1 этаж
56.950818;60.786712;Лесная поляна;загородный клуб;44-й квартал, 2а
56.826009;60.556354;Малиновка;ресторан;Металлургов, 6а, цокольный этаж
56.736316;60.966131;Раздолье;загородный SPA-отель;Ленина, 55
56.810602;60.508911;Сибирь;гостиничный комплекс;Соболева, 23
56.835903;60.596583;Сербская Таверна;ресторан;Театральный переулок, 5а
56.821855;60.544413;MARADONA;караоке-клуб;БЦ Сенатор, Репина, 95, цокольный этаж
56.823119;60.588;АРТИСТ;караоке-клуб;Московская, 131, 1 этаж
56.824998;60.595251;Мангал;ресторан;Хохрякова, 102а
56.834829;60.599458;IL Патио;сеть семейных итальянских ресторанов;ТЦ Мытный Двор, 8 Марта, 8д, 1 этаж
56.835125;60.613286;Савой;ресторан;Отель Центральный, Малышева, 74, 1 этаж
